 const secondUserSolutionMapPoints=[
  {
    "solutionname": "SBA Morgan",
    "latitude": "28.034674",
    "longitude": "-82.435409",
    "market": 144,
    "marketname": "Tampa-1",
    "solutionid": 7171928,
    "status": "COMPLETED",
    "solutiontype": "MODIFICATION",
    "createdby": "TORRSA4",
    "area": "SOUTH"
  },
  {
    "solutionname": "COREY LAKES-144214-132536",
    "latitude": "27.873456",
    "longitude": "-82.556728",
    "market": 144,
    "marketname": "Tampa-1",
    "solutionid": 7386426,
    "status": "COMPLETED",
    "solutiontype": "MODIFICATION",
    "createdby": "TORRSA4",
    "area": "SOUTH"
  },
  {
    "solutionname": "WS MARINER",
    "latitude": "27.949966",
    "longitude": "-82.421182",
    "market": 144,
    "marketname": "Tampa-1",
    "solutionid": 6426404,
    "status": "COMPLETED",
    "solutiontype": "SC",
    "createdby": "TORRSA4",
    "area": "SOUTH"
  },
  {
    "solutionname": "088233 NC KINGS (402)-144-850-7971033",
    "latitude": "27.897743",
    "longitude": "-82.379569",
    "market": 144,
    "marketname": "Tampa-1",
    "solutionid": 8001545,
    "status": "COMPLETED",
    "solutiontype": "MODIFICATION",
    "createdby": "TORRSA4",
    "area": "SOUTH"
  },
  {
    "solutionname": "DT TAMPA NODE 4",
    "latitude": "27.877169",
    "longitude": "-82.508205",
    "market": 144,
    "marketname": "Tampa-1",
    "solutionid": 7013645,
    "status": "COMPLETED",
    "solutiontype": "SC",
    "createdby": "TORRSA4",
    "area": "SOUTH"
  },
  {
    "solutionname": "MACDILL AIRFORCE BASE  RELO-144878-508234",
    "latitude": "28.049445",
    "longitude": "-82.490114",
    "market": 144,
    "marketname": "Tampa-1",
    "solutionid": 7987344,
    "status": "ACTIVE",
    "solutiontype": "MODIFICATION",
    "createdby": "TORRSA4",
    "area": "SOUTH"
  },
  {
    "solutionname": "MCR_144338 Thompson.",
    "latitude": "27.958804",
    "longitude": "-82.492553",
    "market": 144,
    "marketname": "Tampa-1",
    "solutionid": 6374136,
    "status": "INACTIVE",
    "solutiontype": "MCR",
    "createdby": "TORRSA4",
    "area": "SOUTH"
  },
  {
    "solutionname": "SC Rocky Creek",
    "latitude": "28.000090",
    "longitude": "-82.478203",
    "market": 144,
    "marketname": "Tampa-1",
    "solutionid": 6318386,
    "status": "INACTIVE",
    "solutiontype": "SC",
    "createdby": "TORRSA4",
    "area": "SOUTH"
  },
  {
    "solutionname": "WS GRACE",
    "latitude": "27.905801",
    "longitude": "-82.530960",
    "market": 144,
    "marketname": "Tampa-1",
    "solutionid": 6358679,
    "status": "COMPLETED",
    "solutiontype": "SC",
    "createdby": "TORRSA4",
    "area": "SOUTH"
  },
  {
    "solutionname": "BAY LIFE CHURCH",
    "latitude": "28.040602",
    "longitude": "-82.476543",
    "market": 144,
    "marketname": "Tampa-1",
    "solutionid": 7529486,
    "status": "ACTIVE",
    "solutiontype": "MCR",
    "createdby": "TORRSA4",
    "area": "SOUTH"
  },
  {
    "solutionname": "BAY LIFE CHURCH",
    "latitude": "28.033026",
    "longitude": "-82.486996",
    "market": 144,
    "marketname": "Tampa-1",
    "solutionid": 7529485,
    "status": "ACTIVE",
    "solutiontype": "MCR",
    "createdby": "TORRSA4",
    "area": "SOUTH"
  },
  {
    "solutionname": "144348 -AWS3 -5MHz",
    "latitude": "27.960730",
    "longitude": "-82.391840",
    "market": 144,
    "marketname": "Tampa-1",
    "solutionid": 6276420,
    "status": "COMPLETED",
    "solutiontype": "MODIFICATION",
    "createdby": "TORRSA4",
    "area": "SOUTH"
  },
  {
    "solutionname": "088890 - USF Campus-144-L-Sub6-7882791",
    "latitude": "27.882800",
    "longitude": "-82.477006",
    "market": 144,
    "marketname": "Tampa-1",
    "solutionid": 7994119,
    "status": "ACTIVE",
    "solutiontype": "MODIFICATION",
    "createdby": "TORRSA4",
    "area": "SOUTH"
  },
  {
    "solutionname": "CHEVAL KASSELS-144139-132405",
    "latitude": "27.997933",
    "longitude": "-82.469921",
    "market": 144,
    "marketname": "Tampa-1",
    "solutionid": 7386618,
    "status": "COMPLETED",
    "solutiontype": "MODIFICATION",
    "createdby": "TORRSA4",
    "area": "SOUTH"
  },
  {
    "solutionname": "Frontier Howard",
    "latitude": "27.964803",
    "longitude": "-82.542352",
    "market": 144,
    "marketname": "Tampa-1",
    "solutionid": 7013481,
    "status": "COMPLETED",
    "solutiontype": "SC",
    "createdby": "TORRSA4",
    "area": "SOUTH"
  },
  {
    "solutionname": "Sarvarese Circle SC",
    "latitude": "27.966398",
    "longitude": "-82.390048",
    "market": 144,
    "marketname": "Tampa-1",
    "solutionid": 6300599,
    "status": "INACTIVE",
    "solutiontype": "SC",
    "createdby": "TORRSA4",
    "area": "SOUTH"
  },
  {
    "solutionname": "TAMPA AIRPORT-144822-0",
    "latitude": "28.048008",
    "longitude": "-82.363715",
    "market": 144,
    "marketname": "Tampa-1",
    "solutionid": 7652159,
    "status": "ACTIVE",
    "solutiontype": "MODIFICATION",
    "createdby": "TORRSA4",
    "area": "SOUTH"
  },
  {
    "solutionname": "TECO WESTCHASE LINE-144019-0",
    "latitude": "27.894326",
    "longitude": "-82.370810",
    "market": 144,
    "marketname": "Tampa-1",
    "solutionid": 7518130,
    "status": "COMPLETED",
    "solutiontype": "MODIFICATION",
    "createdby": "TORRSA4",
    "area": "SOUTH"
  },
  {
    "solutionname": "VALRICO-144078-0",
    "latitude": "27.928203",
    "longitude": "-82.342224",
    "market": 144,
    "marketname": "Tampa-1",
    "solutionid": 7667844,
    "status": "COMPLETED",
    "solutiontype": "MODIFICATION",
    "createdby": "TORRSA4",
    "area": "SOUTH"
  },
  {
    "solutionname": "UT NODE 4",
    "latitude": "28.028672",
    "longitude": "-82.356962",
    "market": 144,
    "marketname": "Tampa-1",
    "solutionid": 6503539,
    "status": "COMPLETED",
    "solutiontype": "SC",
    "createdby": "TORRSA4",
    "area": "SOUTH"
  },
  {
    "solutionname": "MCR_144338 Thompson.",
    "latitude": "27.951229",
    "longitude": "-82.503005",
    "market": 144,
    "marketname": "Tampa-1",
    "solutionid": 6374135,
    "status": "INACTIVE",
    "solutiontype": "MCR",
    "createdby": "TORRSA4",
    "area": "SOUTH"
  },
  {
    "solutionname": "BRANDON NODE 08-SC-380318",
    "latitude": "28.021390",
    "longitude": "-82.488015",
    "market": 144,
    "marketname": "Tampa-1",
    "solutionid": 7717818,
    "status": "COMPLETED",
    "solutiontype": "SC",
    "createdby": "TORRSA4",
    "area": "SOUTH"
  },
  {
    "solutionname": "HYDE PARK 017",
    "latitude": "27.970141",
    "longitude": "-82.520167",
    "market": 144,
    "marketname": "Tampa-1",
    "solutionid": 7012955,
    "status": "COMPLETED",
    "solutiontype": "SC",
    "createdby": "TORRSA4",
    "area": "SOUTH"
  },
  {
    "solutionname": "Small Cell Montague St",
    "latitude": "27.891955",
    "longitude": "-82.514138",
    "market": 144,
    "marketname": "Tampa-1",
    "solutionid": 6560079,
    "status": "COMPLETED",
    "solutiontype": "SC",
    "createdby": "TORRSA4",
    "area": "SOUTH"
  },
  {
    "solutionname": "VERTEX BOYETTE",
    "latitude": "27.896766",
    "longitude": "-82.543365",
    "market": 144,
    "marketname": "Tampa-1",
    "solutionid": 7810326,
    "status": "COMPLETED",
    "solutiontype": "MCR",
    "createdby": "TORRSA4",
    "area": "SOUTH"
  },
  {
    "solutionname": "DT TAMPA NODE 27",
    "latitude": "27.993652",
    "longitude": "-82.384459",
    "market": 144,
    "marketname": "Tampa-1",
    "solutionid": 7014162,
    "status": "COMPLETED",
    "solutiontype": "SC",
    "createdby": "TORRSA4",
    "area": "SOUTH"
  },
  {
    "solutionname": "086830 TECO LITHIA SWITCH 2 (199)-144-AWS-7876620",
    "latitude": "28.023601",
    "longitude": "-82.529796",
    "market": 144,
    "marketname": "Tampa-1",
    "solutionid": 7952553,
    "status": "COMPLETED",
    "solutiontype": "MODIFICATION",
    "createdby": "TORRSA4",
    "area": "SOUTH"
  },
  {
    "solutionname": "BRANDON NODE 08-SC-380318",
    "latitude": "28.059267",
    "longitude": "-82.435755",
    "market": 144,
    "marketname": "Tampa-1",
    "solutionid": 7717823,
    "status": "COMPLETED",
    "solutiontype": "SC",
    "createdby": "TORRSA4",
    "area": "SOUTH"
  },
  {
    "solutionname": "56TH STREET-144884-0",
    "latitude": "28.005987",
    "longitude": "-82.405643",
    "market": 144,
    "marketname": "Tampa-1",
    "solutionid": 7333146,
    "status": "COMPLETED",
    "solutiontype": "MODIFICATION",
    "createdby": "TORRSA4",
    "area": "SOUTH"
  },
  {
    "solutionname": "ACME DOVER-144129-132528",
    "latitude": "27.878222",
    "longitude": "-82.508784",
    "market": 144,
    "marketname": "Tampa-1",
    "solutionid": 7187558,
    "status": "COMPLETED",
    "solutiontype": "MODIFICATION",
    "createdby": "TORRSA4",
    "area": "SOUTH"
  },
  {
    "solutionname": "I-75& Causeway-144-700-7599497",
    "latitude": "28.023510",
    "longitude": "-82.356506",
    "market": 144,
    "marketname": "Tampa-1",
    "solutionid": 7839161,
    "status": "COMPLETED",
    "solutiontype": "MCR",
    "createdby": "TORRSA4",
    "area": "SOUTH"
  },
  {
    "solutionname": "SBA Morgan",
    "latitude": "27.977503",
    "longitude": "-82.361366",
    "market": 144,
    "marketname": "Tampa-1",
    "solutionid": 6276974,
    "status": "COMPLETED",
    "solutiontype": "MODIFICATION",
    "createdby": "TORRSA4",
    "area": "SOUTH"
  },
  {
    "solutionname": "CROWN PASCO COUNTY-144246-0",
    "latitude": "27.876457",
    "longitude": "-82.527514",
    "market": 144,
    "marketname": "Tampa-1",
    "solutionid": 7432651,
    "status": "COMPLETED",
    "solutiontype": "MODIFICATION",
    "createdby": "TORRSA4",
    "area": "SOUTH"
  },
  {
    "solutionname": "TIA-144858-230470",
    "latitude": "27.925259",
    "longitude": "-82.474314",
    "market": 144,
    "marketname": "Tampa-1",
    "solutionid": 7196769,
    "status": "COMPLETED",
    "solutiontype": "MODIFICATION",
    "createdby": "TORRSA4",
    "area": "SOUTH"
  },
  {
    "solutionname": "ICE_PALACE-144-144445-AWS3",
    "latitude": "27.925449",
    "longitude": "-82.513285",
    "market": 144,
    "marketname": "Tampa-1",
    "solutionid": 7029603,
    "status": "COMPLETED",
    "solutiontype": "MODIFICATION",
    "createdby": "TORRSA4",
    "area": "SOUTH"
  },
  {
    "solutionname": "SEVEN_OAKS_ELEMENTARY-144-144242-CBRS",
    "latitude": "27.894243",
    "longitude": "-82.480295",
    "market": 144,
    "marketname": "Tampa-1",
    "solutionid": 6777508,
    "status": "COMPLETED",
    "solutiontype": "MODIFICATION",
    "createdby": "TORRSA4",
    "area": "SOUTH"
  },
  {
    "solutionname": "144348 -AWS3 -5MHz",
    "latitude": "27.953154",
    "longitude": "-82.402292",
    "market": 144,
    "marketname": "Tampa-1",
    "solutionid": 6276419,
    "status": "COMPLETED",
    "solutiontype": "MODIFICATION",
    "createdby": "TORRSA4",
    "area": "SOUTH"
  },
  {
    "solutionname": "144362 -PCS -10MHz",
    "latitude": "27.984125",
    "longitude": "-82.487213",
    "market": 144,
    "marketname": "Tampa-1",
    "solutionid": 6412965,
    "status": "COMPLETED",
    "solutiontype": "MODIFICATION",
    "createdby": "TORRSA4",
    "area": "SOUTH"
  },
  {
    "solutionname": "144362 -PCS -10MHz",
    "latitude": "27.976550",
    "longitude": "-82.497665",
    "market": 144,
    "marketname": "Tampa-1",
    "solutionid": 6412964,
    "status": "COMPLETED",
    "solutiontype": "MODIFICATION",
    "createdby": "TORRSA4",
    "area": "SOUTH"
  },
  {
    "solutionname": "144248 -850 -5MHz",
    "latitude": "28.041379",
    "longitude": "-82.511729",
    "market": 144,
    "marketname": "Tampa-1",
    "solutionid": 6758240,
    "status": "COMPLETED",
    "solutiontype": "MODIFICATION",
    "createdby": "TORRSA4",
    "area": "SOUTH"
  },
  {
    "solutionname": "144362 -PCS -10MHz",
    "latitude": "27.999276",
    "longitude": "-82.466309",
    "market": 144,
    "marketname": "Tampa-1",
    "solutionid": 6412967,
    "status": "COMPLETED",
    "solutiontype": "MODIFICATION",
    "createdby": "TORRSA4",
    "area": "SOUTH"
  },
  {
    "solutionname": "LINUS_CORP-144-144250-PCS",
    "latitude": "28.038981",
    "longitude": "-82.452364",
    "market": 144,
    "marketname": "Tampa-1",
    "solutionid": 6377056,
    "status": "COMPLETED",
    "solutiontype": "MODIFICATION",
    "createdby": "TORRSA4",
    "area": "SOUTH"
  },
  {
    "solutionname": "144362 -PCS -10MHz",
    "latitude": "27.991701",
    "longitude": "-82.476761",
    "market": 144,
    "marketname": "Tampa-1",
    "solutionid": 6412966,
    "status": "COMPLETED",
    "solutiontype": "MODIFICATION",
    "createdby": "TORRSA4",
    "area": "SOUTH"
  },
  {
    "solutionname": "085800 ATT ARMENIA (125)-144-144125-28GHz-674049",
    "latitude": "28.043667",
    "longitude": "-82.341012",
    "market": 144,
    "marketname": "Tampa-1",
    "solutionid": 6399730,
    "status": "COMPLETED",
    "solutiontype": "MODIFICATION",
    "createdby": "TORRSA4",
    "area": "SOUTH"
  },
  {
    "solutionname": "144405 Sheraton River Walk",
    "latitude": "27.998112",
    "longitude": "-82.497427",
    "market": 144,
    "marketname": "Tampa-1",
    "solutionid": 6527337,
    "status": "COMPLETED",
    "solutiontype": "MCR",
    "createdby": "TORRSA4",
    "area": "SOUTH"
  },
  {
    "solutionname": "SBA Morgan",
    "latitude": "28.011948",
    "longitude": "-82.466765",
    "market": 144,
    "marketname": "Tampa-1",
    "solutionid": 7171925,
    "status": "COMPLETED",
    "solutiontype": "MODIFICATION",
    "createdby": "TORRSA4",
    "area": "SOUTH"
  },
  {
    "solutionname": "SPECTRASITE FANTASIA-144398-0",
    "latitude": "27.983563",
    "longitude": "-82.463502",
    "market": 144,
    "marketname": "Tampa-1",
    "solutionid": 7344254,
    "status": "COMPLETED",
    "solutiontype": "MODIFICATION",
    "createdby": "TORRSA4",
    "area": "SOUTH"
  },
  {
    "solutionname": "VERTEX WIREGRASS-144236-176601",
    "latitude": "27.990623",
    "longitude": "-82.439011",
    "market": 144,
    "marketname": "Tampa-1",
    "solutionid": 7420903,
    "status": "COMPLETED",
    "solutiontype": "MODIFICATION",
    "createdby": "TORRSA4",
    "area": "SOUTH"
  },
  {
    "solutionname": "FL LIVE OAK PRIDE-144885-238433",
    "latitude": "28.028091",
    "longitude": "-82.425303",
    "market": 144,
    "marketname": "Tampa-1",
    "solutionid": 7508366,
    "status": "COMPLETED",
    "solutiontype": "MODIFICATION",
    "createdby": "TORRSA4",
    "area": "SOUTH"
  },
  {
    "solutionname": "FL LIVE OAK PRIDE-144885-238433",
    "latitude": "28.005365",
    "longitude": "-82.456659",
    "market": 144,
    "marketname": "Tampa-1",
    "solutionid": 7508363,
    "status": "COMPLETED",
    "solutiontype": "MODIFICATION",
    "createdby": "TORRSA4",
    "area": "SOUTH"
  },
  {
    "solutionname": "144197 -4TX 700-10MHz",
    "latitude": "27.986563",
    "longitude": "-82.513475",
    "market": 144,
    "marketname": "Tampa-1",
    "solutionid": 6566738,
    "status": "COMPLETED",
    "solutiontype": "MODIFICATION",
    "createdby": "TORRSA4",
    "area": "SOUTH"
  },
  {
    "solutionname": "CENTRO YBOR-144401-156087",
    "latitude": "28.057021",
    "longitude": "-82.342788",
    "market": 144,
    "marketname": "Tampa-1",
    "solutionid": 7411406,
    "status": "COMPLETED",
    "solutiontype": "MODIFICATION",
    "createdby": "TORRSA4",
    "area": "SOUTH"
  },
  {
    "solutionname": "FOREST HILLS AT & T-144188-0",
    "latitude": "27.985414",
    "longitude": "-82.474321",
    "market": 144,
    "marketname": "Tampa-1",
    "solutionid": 7635547,
    "status": "COMPLETED",
    "solutiontype": "MODIFICATION",
    "createdby": "TORRSA4",
    "area": "SOUTH"
  },
  {
    "solutionname": "CITRUSPA-144869-0",
    "latitude": "28.059431",
    "longitude": "-82.375160",
    "market": 144,
    "marketname": "Tampa-1",
    "solutionid": 7551585,
    "status": "COMPLETED",
    "solutiontype": "MODIFICATION",
    "createdby": "TORRSA4",
    "area": "SOUTH"
  },
  {
    "solutionname": "NORTHDALE SPRINT (308)-144308-0",
    "latitude": "27.893904",
    "longitude": "-82.534771",
    "market": 144,
    "marketname": "Tampa-1",
    "solutionid": 7489412,
    "status": "COMPLETED",
    "solutiontype": "MODIFICATION",
    "createdby": "TORRSA4",
    "area": "SOUTH"
  },
  {
    "solutionname": "SARAH-144808-230566",
    "latitude": "27.997024",
    "longitude": "-82.373734",
    "market": 144,
    "marketname": "Tampa-1",
    "solutionid": 7448142,
    "status": "COMPLETED",
    "solutiontype": "MODIFICATION",
    "createdby": "TORRSA4",
    "area": "SOUTH"
  },
  {
    "solutionname": "LUTZ-144141-132423",
    "latitude": "27.989421",
    "longitude": "-82.390296",
    "market": 144,
    "marketname": "Tampa-1",
    "solutionid": 7434547,
    "status": "COMPLETED",
    "solutiontype": "MODIFICATION",
    "createdby": "TORRSA4",
    "area": "SOUTH"
  },
  {
    "solutionname": "ANCLOTE 98 ROCK-144259-132562",
    "latitude": "28.044398",
    "longitude": "-82.539307",
    "market": 144,
    "marketname": "Tampa-1",
    "solutionid": 7430767,
    "status": "COMPLETED",
    "solutiontype": "MODIFICATION",
    "createdby": "TORRSA4",
    "area": "SOUTH"
  },
  {
    "solutionname": "WREC CURLEY-144444-162101",
    "latitude": "27.985362",
    "longitude": "-82.385573",
    "market": 144,
    "marketname": "Tampa-1",
    "solutionid": 7404123,
    "status": "COMPLETED",
    "solutiontype": "MODIFICATION",
    "createdby": "TORRSA4",
    "area": "SOUTH"
  },
  {
    "solutionname": "MATEO RLB-144356-267055",
    "latitude": "27.929991",
    "longitude": "-82.394414",
    "market": 144,
    "marketname": "Tampa-1",
    "solutionid": 7392779,
    "status": "COMPLETED",
    "solutiontype": "MODIFICATION",
    "createdby": "TORRSA4",
    "area": "SOUTH"
  },
  {
    "solutionname": "144431 -PCS -10MHz",
    "latitude": "27.962137",
    "longitude": "-82.416514",
    "market": 144,
    "marketname": "Tampa-1",
    "solutionid": 7392708,
    "status": "COMPLETED",
    "solutiontype": "MODIFICATION",
    "createdby": "TORRSA4",
    "area": "SOUTH"
  },
  {
    "solutionname": "144431 -PCS -10MHz",
    "latitude": "27.946986",
    "longitude": "-82.437418",
    "market": 144,
    "marketname": "Tampa-1",
    "solutionid": 7392706,
    "status": "COMPLETED",
    "solutiontype": "MODIFICATION",
    "createdby": "TORRSA4",
    "area": "SOUTH"
  },
  {
    "solutionname": "F&L HENDERSON-144373-283785",
    "latitude": "27.962157",
    "longitude": "-82.341140",
    "market": 144,
    "marketname": "Tampa-1",
    "solutionid": 7224313,
    "status": "COMPLETED",
    "solutiontype": "MODIFICATION",
    "createdby": "TORRSA4",
    "area": "SOUTH"
  },
  {
    "solutionname": "144040 -PCS -10MHz",
    "latitude": "28.009776",
    "longitude": "-82.540725",
    "market": 144,
    "marketname": "Tampa-1",
    "solutionid": 7409619,
    "status": "COMPLETED",
    "solutiontype": "MODIFICATION",
    "createdby": "TORRSA4",
    "area": "SOUTH"
  },
  {
    "solutionname": "ACME DOVER-144129-132528",
    "latitude": "28.050328",
    "longitude": "-82.467505",
    "market": 144,
    "marketname": "Tampa-1",
    "solutionid": 7460188,
    "status": "COMPLETED",
    "solutiontype": "MODIFICATION",
    "createdby": "TORRSA4",
    "area": "SOUTH"
  },
  {
    "solutionname": "NEW LIFE TABERNACLE-144305-275741",
    "latitude": "27.893006",
    "longitude": "-82.406883",
    "market": 144,
    "marketname": "Tampa-1",
    "solutionid": 7528689,
    "status": "COMPLETED",
    "solutiontype": "MODIFICATION",
    "createdby": "TORRSA4",
    "area": "SOUTH"
  },
  {
    "solutionname": "WESTSHORE SOUTH-144883-238110",
    "latitude": "27.965273",
    "longitude": "-82.556136",
    "market": 144,
    "marketname": "Tampa-1",
    "solutionid": 7353958,
    "status": "COMPLETED",
    "solutiontype": "MODIFICATION",
    "createdby": "TORRSA4",
    "area": "SOUTH"
  },
  {
    "solutionname": "WESLEY CHAPEL-144043-132215",
    "latitude": "27.971491",
    "longitude": "-82.513892",
    "market": 144,
    "marketname": "Tampa-1",
    "solutionid": 7387693,
    "status": "COMPLETED",
    "solutiontype": "MODIFICATION",
    "createdby": "TORRSA4",
    "area": "SOUTH"
  },
  {
    "solutionname": "088890 - USF Campus-144-L-Sub6-7882791",
    "latitude": "27.890376",
    "longitude": "-82.466554",
    "market": 144,
    "marketname": "Tampa-1",
    "solutionid": 7994120,
    "status": "ACTIVE",
    "solutiontype": "MODIFICATION",
    "createdby": "TORRSA4",
    "area": "SOUTH"
  },
  {
    "solutionname": "SBA Morgan",
    "latitude": "27.996797",
    "longitude": "-82.487669",
    "market": 144,
    "marketname": "Tampa-1",
    "solutionid": 7171923,
    "status": "COMPLETED",
    "solutiontype": "MODIFICATION",
    "createdby": "TORRSA4",
    "area": "SOUTH"
  },
  {
    "solutionname": "NORTHDALE-144835-230857",
    "latitude": "27.979281",
    "longitude": "-82.385300",
    "market": 144,
    "marketname": "Tampa-1",
    "solutionid": 7314457,
    "status": "COMPLETED",
    "solutiontype": "MODIFICATION",
    "createdby": "TORRSA4",
    "area": "SOUTH"
  },
  {
    "solutionname": "EME HANNA-144108-0",
    "latitude": "27.916301",
    "longitude": "-82.365377",
    "market": 144,
    "marketname": "Tampa-1",
    "solutionid": 7355331,
    "status": "COMPLETED",
    "solutiontype": "MODIFICATION",
    "createdby": "TORRSA4",
    "area": "SOUTH"
  },
  {
    "solutionname": "PINNACLE WESTSHORE-144128-0",
    "latitude": "27.889770",
    "longitude": "-82.499996",
    "market": 144,
    "marketname": "Tampa-1",
    "solutionid": 7490816,
    "status": "COMPLETED",
    "solutiontype": "MODIFICATION",
    "createdby": "TORRSA4",
    "area": "SOUTH"
  },
  {
    "solutionname": "088890 - USF Campus-144-L-Sub6-7882791",
    "latitude": "27.875225",
    "longitude": "-82.487458",
    "market": 144,
    "marketname": "Tampa-1",
    "solutionid": 7994118,
    "status": "ACTIVE",
    "solutiontype": "MODIFICATION",
    "createdby": "TORRSA4",
    "area": "SOUTH"
  },
  {
    "solutionname": "SBA ELFERS-144431-167409",
    "latitude": "27.955568",
    "longitude": "-82.494510",
    "market": 144,
    "marketname": "Tampa-1",
    "solutionid": 7036103,
    "status": "COMPLETED",
    "solutiontype": "MODIFICATION",
    "createdby": "TORRSA4",
    "area": "SOUTH"
  },
  {
    "solutionname": "DIEZ 2A-144039-0",
    "latitude": "27.914104",
    "longitude": "-82.450155",
    "market": 144,
    "marketname": "Tampa-1",
    "solutionid": 7360673,
    "status": "COMPLETED",
    "solutiontype": "MODIFICATION",
    "createdby": "TORRSA4",
    "area": "SOUTH"
  },
  {
    "solutionname": "WIREGRASS-MCR-668923",
    "latitude": "28.012282",
    "longitude": "-82.527775",
    "market": 144,
    "marketname": "Tampa-1",
    "solutionid": 7349575,
    "status": "COMPLETED",
    "solutiontype": "MCR",
    "createdby": "TORRSA4",
    "area": "SOUTH"
  },
  {
    "solutionname": "144405 Sheraton River Walk",
    "latitude": "28.005687",
    "longitude": "-82.486975",
    "market": 144,
    "marketname": "Tampa-1",
    "solutionid": 6527338,
    "status": "COMPLETED",
    "solutiontype": "MCR",
    "createdby": "TORRSA4",
    "area": "SOUTH"
  },
  {
    "solutionname": "ACME MORICZVILLE-144153-130673",
    "latitude": "27.959475",
    "longitude": "-82.422450",
    "market": 144,
    "marketname": "Tampa-1",
    "solutionid": 7225040,
    "status": "COMPLETED",
    "solutiontype": "MODIFICATION",
    "createdby": "TORRSA4",
    "area": "SOUTH"
  },
  {
    "solutionname": "085800 ATT ARMENIA (125)-144-144125-28GHz-674049",
    "latitude": "28.036092",
    "longitude": "-82.351464",
    "market": 144,
    "marketname": "Tampa-1",
    "solutionid": 6399729,
    "status": "COMPLETED",
    "solutiontype": "MODIFICATION",
    "createdby": "TORRSA4",
    "area": "SOUTH"
  },
  {
    "solutionname": "VZW CALL CENTER-144131-250453",
    "latitude": "27.923657",
    "longitude": "-82.408510",
    "market": 144,
    "marketname": "Tampa-1",
    "solutionid": 7027822,
    "status": "COMPLETED",
    "solutiontype": "MODIFICATION",
    "createdby": "TORRSA4",
    "area": "SOUTH"
  },
  {
    "solutionname": "F&L HENDERSON-144373-283785",
    "latitude": "28.015086",
    "longitude": "-82.383066",
    "market": 144,
    "marketname": "Tampa-1",
    "solutionid": 7038318,
    "status": "COMPLETED",
    "solutiontype": "MODIFICATION",
    "createdby": "TORRSA4",
    "area": "SOUTH"
  },
  {
    "solutionname": "THONOTOSASSA-144877-230461",
    "latitude": "27.904597",
    "longitude": "-82.386379",
    "market": 144,
    "marketname": "Tampa-1",
    "solutionid": 7290921,
    "status": "COMPLETED",
    "solutiontype": "MODIFICATION",
    "createdby": "TORRSA4",
    "area": "SOUTH"
  },
  {
    "solutionname": "JENNISON-144862-230571",
    "latitude": "27.927680",
    "longitude": "-82.357338",
    "market": 144,
    "marketname": "Tampa-1",
    "solutionid": 7205322,
    "status": "COMPLETED",
    "solutiontype": "MODIFICATION",
    "createdby": "TORRSA4",
    "area": "SOUTH"
  },
  {
    "solutionname": "PRIMESITE SHELDON-144273-130587",
    "latitude": "28.004468",
    "longitude": "-82.321510",
    "market": 144,
    "marketname": "Tampa-1",
    "solutionid": 7204981,
    "status": "COMPLETED",
    "solutiontype": "MODIFICATION",
    "createdby": "TORRSA4",
    "area": "SOUTH"
  },
  {
    "solutionname": "SIGNAL WIMAUMA-144270-130667",
    "latitude": "27.983654",
    "longitude": "-82.507178",
    "market": 144,
    "marketname": "Tampa-1",
    "solutionid": 7224366,
    "status": "COMPLETED",
    "solutiontype": "MODIFICATION",
    "createdby": "TORRSA4",
    "area": "SOUTH"
  },
  {
    "solutionname": "LAND O LAKES-144837-230492",
    "latitude": "27.918837",
    "longitude": "-82.362996",
    "market": 144,
    "marketname": "Tampa-1",
    "solutionid": 7214024,
    "status": "COMPLETED",
    "solutiontype": "MODIFICATION",
    "createdby": "TORRSA4",
    "area": "SOUTH"
  },
  {
    "solutionname": "LAND O LAKES-144837-230492",
    "latitude": "27.903686",
    "longitude": "-82.383900",
    "market": 144,
    "marketname": "Tampa-1",
    "solutionid": 7214022,
    "status": "COMPLETED",
    "solutiontype": "MODIFICATION",
    "createdby": "TORRSA4",
    "area": "SOUTH"
  },
  {
    "solutionname": "CROWN FOWLER-144324-0",
    "latitude": "27.986235",
    "longitude": "-82.425864",
    "market": 144,
    "marketname": "Tampa-1",
    "solutionid": 7489675,
    "status": "COMPLETED",
    "solutiontype": "MODIFICATION",
    "createdby": "TORRSA4",
    "area": "SOUTH"
  },
  {
    "solutionname": "SBA Morgan",
    "latitude": "27.959629",
    "longitude": "-82.523171",
    "market": 144,
    "marketname": "Tampa-1",
    "solutionid": 7314329,
    "status": "COMPLETED",
    "solutiontype": "MODIFICATION",
    "createdby": "TORRSA4",
    "area": "SOUTH"
  },
  {
    "solutionname": "NEXTEL PICNIC-144389-130341",
    "latitude": "27.961672",
    "longitude": "-82.455316",
    "market": 144,
    "marketname": "Tampa-1",
    "solutionid": 7329077,
    "status": "COMPLETED",
    "solutiontype": "MODIFICATION",
    "createdby": "TORRSA4",
    "area": "SOUTH"
  },
  {
    "solutionname": "EAST WIMAUMA-144363-130350",
    "latitude": "27.884756",
    "longitude": "-82.367634",
    "market": 144,
    "marketname": "Tampa-1",
    "solutionid": 7348580,
    "status": "COMPLETED",
    "solutiontype": "MODIFICATION",
    "createdby": "TORRSA4",
    "area": "SOUTH"
  },
  {
    "solutionname": "ATC Brandon-144339-0",
    "latitude": "27.984151",
    "longitude": "-82.385238",
    "market": 144,
    "marketname": "Tampa-1",
    "solutionid": 7345157,
    "status": "COMPLETED",
    "solutiontype": "MODIFICATION",
    "createdby": "TORRSA4",
    "area": "SOUTH"
  },
  {
    "solutionname": "ATC Brandon-144339-0",
    "latitude": "27.976576",
    "longitude": "-82.395690",
    "market": 144,
    "marketname": "Tampa-1",
    "solutionid": 7345156,
    "status": "COMPLETED",
    "solutiontype": "MODIFICATION",
    "createdby": "TORRSA4",
    "area": "SOUTH"
  },
  {
    "solutionname": "BRANDON FELLOWSHIP-144280-130668",
    "latitude": "27.962983",
    "longitude": "-82.345270",
    "market": 144,
    "marketname": "Tampa-1",
    "solutionid": 7355287,
    "status": "COMPLETED",
    "solutiontype": "MODIFICATION",
    "createdby": "TORRSA4",
    "area": "SOUTH"
  },
  {
    "solutionname": "FIRST PRESBYTERIAN CHURCH-144404-380614",
    "latitude": "28.056732",
    "longitude": "-82.418907",
    "market": 144,
    "marketname": "Tampa-1",
    "solutionid": 7392570,
    "status": "COMPLETED",
    "solutiontype": "MODIFICATION",
    "createdby": "TORRSA4",
    "area": "SOUTH"
  },
  {
    "solutionname": "SEMINOLE-144859-0",
    "latitude": "28.005182",
    "longitude": "-82.467723",
    "market": 144,
    "marketname": "Tampa-1",
    "solutionid": 7390958,
    "status": "COMPLETED",
    "solutiontype": "MODIFICATION",
    "createdby": "TORRSA4",
    "area": "SOUTH"
  },
  {
    "solutionname": "144042 -4TX 700-10MHz",
    "latitude": "27.963053",
    "longitude": "-82.329996",
    "market": 144,
    "marketname": "Tampa-1",
    "solutionid": 7389272,
    "status": "COMPLETED",
    "solutiontype": "MODIFICATION",
    "createdby": "TORRSA4",
    "area": "SOUTH"
  },
  {
    "solutionname": "VERTEX TRAPNELL-144294-275759",
    "latitude": "27.930345",
    "longitude": "-82.380050",
    "market": 144,
    "marketname": "Tampa-1",
    "solutionid": 7402034,
    "status": "COMPLETED",
    "solutiontype": "MODIFICATION",
    "createdby": "TORRSA4",
    "area": "SOUTH"
  },
  {
    "solutionname": "SHOPPES OF CARROLLWOOD-144037-132207",
    "latitude": "28.016984",
    "longitude": "-82.559661",
    "market": 144,
    "marketname": "Tampa-1",
    "solutionid": 7517469,
    "status": "ACTIVE",
    "solutiontype": "MODIFICATION",
    "createdby": "TORRSA4",
    "area": "SOUTH"
  },
  {
    "solutionname": "085800 ATT ARMENIA (125)-144-144125-28GHz-674049",
    "latitude": "27.924668",
    "longitude": "-82.547868",
    "market": 144,
    "marketname": "Tampa-1",
    "solutionid": 7414624,
    "status": "COMPLETED",
    "solutiontype": "MODIFICATION",
    "createdby": "TORRSA4",
    "area": "SOUTH"
  },
  {
    "solutionname": "Peter Rafferty (Sequoia)",
    "latitude": "28.016370",
    "longitude": "-82.538358",
    "market": 144,
    "marketname": "Tampa-1",
    "solutionid": 7517494,
    "status": "COMPLETED",
    "solutiontype": "MODIFICATION",
    "createdby": "TORRSA4",
    "area": "SOUTH"
  },
  {
    "solutionname": "FL EASTLAKE-144873-230487",
    "latitude": "27.893809",
    "longitude": "-82.450478",
    "market": 144,
    "marketname": "Tampa-1",
    "solutionid": 7456355,
    "status": "COMPLETED",
    "solutiontype": "MODIFICATION",
    "createdby": "TORRSA4",
    "area": "SOUTH"
  },
  {
    "solutionname": "USF_Police Tower_Temp-144041-1-132213",
    "latitude": "27.891044",
    "longitude": "-82.322085",
    "market": 144,
    "marketname": "Tampa-1",
    "solutionid": 7540201,
    "status": "COMPLETED",
    "solutiontype": "MODIFICATION",
    "createdby": "TORRSA4",
    "area": "SOUTH"
  },
  {
    "solutionname": "USF_Police Tower_Temp-144041-1-132213",
    "latitude": "27.875894",
    "longitude": "-82.342990",
    "market": 144,
    "marketname": "Tampa-1",
    "solutionid": 7540199,
    "status": "COMPLETED",
    "solutiontype": "MODIFICATION",
    "createdby": "TORRSA4",
    "area": "SOUTH"
  },
  {
    "solutionname": "FL FAIRWAY PALMS-144092-230447",
    "latitude": "28.021749",
    "longitude": "-82.507008",
    "market": 144,
    "marketname": "Tampa-1",
    "solutionid": 7537359,
    "status": "COMPLETED",
    "solutiontype": "MODIFICATION",
    "createdby": "TORRSA4",
    "area": "SOUTH"
  },
  {
    "solutionname": "CROWN BALM-144390-130328",
    "latitude": "27.991800",
    "longitude": "-82.400129",
    "market": 144,
    "marketname": "Tampa-1",
    "solutionid": 7532088,
    "status": "COMPLETED",
    "solutiontype": "MODIFICATION",
    "createdby": "TORRSA4",
    "area": "SOUTH"
  },
  {
    "solutionname": "CONNER TOWER-144068-0",
    "latitude": "27.910847",
    "longitude": "-82.496288",
    "market": 144,
    "marketname": "Tampa-1",
    "solutionid": 7600574,
    "status": "COMPLETED",
    "solutiontype": "MODIFICATION",
    "createdby": "TORRSA4",
    "area": "SOUTH"
  },
  {
    "solutionname": "BAYPORT-144818-0",
    "latitude": "27.956342",
    "longitude": "-82.558735",
    "market": 144,
    "marketname": "Tampa-1",
    "solutionid": 7635493,
    "status": "COMPLETED",
    "solutiontype": "MODIFICATION",
    "createdby": "TORRSA4",
    "area": "SOUTH"
  },
  {
    "solutionname": "VALRICO-144078-0",
    "latitude": "27.935778",
    "longitude": "-82.331772",
    "market": 144,
    "marketname": "Tampa-1",
    "solutionid": 7667845,
    "status": "COMPLETED",
    "solutiontype": "MODIFICATION",
    "createdby": "TORRSA4",
    "area": "SOUTH"
  },
  {
    "solutionname": "TAMPA AIRPORT-144822-0",
    "latitude": "28.025282",
    "longitude": "-82.395071",
    "market": 144,
    "marketname": "Tampa-1",
    "solutionid": 7652156,
    "status": "ACTIVE",
    "solutiontype": "MODIFICATION",
    "createdby": "TORRSA4",
    "area": "SOUTH"
  },
  {
    "solutionname": "MCKAY HOOKERS POINT RELO-144891-281420",
    "latitude": "27.982930",
    "longitude": "-82.423866",
    "market": 144,
    "marketname": "Tampa-1",
    "solutionid": 7651097,
    "status": "COMPLETED",
    "solutiontype": "MODIFICATION",
    "createdby": "TORRSA4",
    "area": "SOUTH"
  },
  {
    "solutionname": "089175 LITHIA-144-700-7806373",
    "latitude": "27.958026",
    "longitude": "-82.471887",
    "market": 144,
    "marketname": "Tampa-1",
    "solutionid": 7830700,
    "status": "COMPLETED",
    "solutiontype": "MODIFICATION",
    "createdby": "TORRSA4",
    "area": "SOUTH"
  },
  {
    "solutionname": "HILLSBOROUGH FAIRGROUNDS-144760-0",
    "latitude": "27.877615",
    "longitude": "-82.549486",
    "market": 144,
    "marketname": "Tampa-1",
    "solutionid": 7026913,
    "status": "COMPLETED",
    "solutiontype": "MODIFICATION",
    "createdby": "TORRSA4",
    "area": "SOUTH"
  },
  {
    "solutionname": "DIEZ #1-144038-132210",
    "latitude": "27.957596",
    "longitude": "-82.436969",
    "market": 144,
    "marketname": "Tampa-1",
    "solutionid": 7386713,
    "status": "COMPLETED",
    "solutiontype": "MODIFICATION",
    "createdby": "TORRSA4",
    "area": "SOUTH"
  },
  {
    "solutionname": "CHOICE TOOL SUPPLY-144396-0",
    "latitude": "27.939446",
    "longitude": "-82.381411",
    "market": 144,
    "marketname": "Tampa-1",
    "solutionid": 7355008,
    "status": "COMPLETED",
    "solutiontype": "MODIFICATION",
    "createdby": "TORRSA4",
    "area": "SOUTH"
  },
  {
    "solutionname": "TECO TROUT CREEK SUB-144163-131973",
    "latitude": "27.891030",
    "longitude": "-82.553171",
    "market": 144,
    "marketname": "Tampa-1",
    "solutionid": 7409503,
    "status": "COMPLETED",
    "solutiontype": "MODIFICATION",
    "createdby": "TORRSA4",
    "area": "SOUTH"
  },
  {
    "solutionname": "144072 -PCS -10MHz",
    "latitude": "27.923468",
    "longitude": "-82.465404",
    "market": 144,
    "marketname": "Tampa-1",
    "solutionid": 6276390,
    "status": "COMPLETED",
    "solutiontype": "MODIFICATION",
    "createdby": "TORRSA4",
    "area": "SOUTH"
  },
  {
    "solutionname": "BAY WEST INVESTMENT-144258-0",
    "latitude": "27.961592",
    "longitude": "-82.502292",
    "market": 144,
    "marketname": "Tampa-1",
    "solutionid": 7317339,
    "status": "COMPLETED",
    "solutiontype": "MODIFICATION",
    "createdby": "TORRSA4",
    "area": "SOUTH"
  },
  {
    "solutionname": "APT RUSKIN-144116-132008",
    "latitude": "27.938237",
    "longitude": "-82.405015",
    "market": 144,
    "marketname": "Tampa-1",
    "solutionid": 7543844,
    "status": "COMPLETED",
    "solutiontype": "MODIFICATION",
    "createdby": "TORRSA4",
    "area": "SOUTH"
  },
  {
    "solutionname": "144123 -4TX 700-10MHz",
    "latitude": "27.959161",
    "longitude": "-82.533325",
    "market": 144,
    "marketname": "Tampa-1",
    "solutionid": 7221654,
    "status": "COMPLETED",
    "solutiontype": "MODIFICATION",
    "createdby": "TORRSA4",
    "area": "SOUTH"
  },
  {
    "solutionname": "FL BOYETTE-144-L-Sub6-9235391",
    "latitude": "27.871905",
    "longitude": "-82.534233",
    "market": 144,
    "marketname": "Tampa-1",
    "solutionid": 9424522,
    "status": "ACTIVE",
    "solutiontype": "MODIFICATION",
    "createdby": "TORRSA4",
    "area": "SOUTH"
  },
  {
    "solutionname": "APT RUSKIN-144116-132008",
    "latitude": "27.907936",
    "longitude": "-82.446823",
    "market": 144,
    "marketname": "Tampa-1",
    "solutionid": 7543840,
    "status": "COMPLETED",
    "solutiontype": "MODIFICATION",
    "createdby": "TORRSA4",
    "area": "SOUTH"
  },
  {
    "solutionname": "144830 -850 -5MHz",
    "latitude": "27.988412",
    "longitude": "-82.526845",
    "market": 144,
    "marketname": "Tampa-1",
    "solutionid": 7419448,
    "status": "COMPLETED",
    "solutiontype": "MODIFICATION",
    "createdby": "TORRSA4",
    "area": "SOUTH"
  },
  {
    "solutionname": "I275 ROOSEVELT C-Band Prep",
    "latitude": "27.887111",
    "longitude": "-82.481881",
    "market": 144,
    "marketname": "Tampa-1",
    "solutionid": 8985152,
    "status": "COMPLETED",
    "solutiontype": "MODIFICATION",
    "createdby": "TORRSA4",
    "area": "SOUTH"
  },
  {
    "solutionname": "FPC ALDERMAN SUBSTATION-144004-132163",
    "latitude": "27.987018",
    "longitude": "-82.362521",
    "market": 144,
    "marketname": "Tampa-1",
    "solutionid": 8985416,
    "status": "ACTIVE",
    "solutiontype": "MODIFICATION",
    "createdby": "TORRSA4",
    "area": "SOUTH"
  },
  {
    "solutionname": "FT HARRISON RELO-144014-225907",
    "latitude": "27.890382",
    "longitude": "-82.322308",
    "market": 144,
    "marketname": "Tampa-1",
    "solutionid": 8985328,
    "status": "ACTIVE",
    "solutiontype": "MODIFICATION",
    "createdby": "TORRSA4",
    "area": "SOUTH"
  },
  {
    "solutionname": "APT BAYWAY-144191-132203",
    "latitude": "27.908189",
    "longitude": "-82.360527",
    "market": 144,
    "marketname": "Tampa-1",
    "solutionid": 8985531,
    "status": "INACTIVE",
    "solutiontype": "MODIFICATION",
    "createdby": "TORRSA4",
    "area": "SOUTH"
  },
  {
    "solutionname": "FL LIVE OAK PRIDE-144885-238433",
    "latitude": "28.012941",
    "longitude": "-82.446207",
    "market": 144,
    "marketname": "Tampa-1",
    "solutionid": 7508364,
    "status": "COMPLETED",
    "solutiontype": "MODIFICATION",
    "createdby": "TORRSA4",
    "area": "SOUTH"
  },
  {
    "solutionname": "F&L HENDERSON-144373-283785",
    "latitude": "28.022661",
    "longitude": "-82.372614",
    "market": 144,
    "marketname": "Tampa-1",
    "solutionid": 7038319,
    "status": "COMPLETED",
    "solutiontype": "MODIFICATION",
    "createdby": "TORRSA4",
    "area": "SOUTH"
  },
  {
    "solutionname": "APT RUSKIN-144116-132008",
    "latitude": "27.915511",
    "longitude": "-82.436371",
    "market": 144,
    "marketname": "Tampa-1",
    "solutionid": 7543841,
    "status": "COMPLETED",
    "solutiontype": "MODIFICATION",
    "createdby": "TORRSA4",
    "area": "SOUTH"
  },
  {
    "solutionname": "144072 -PCS -10MHz",
    "latitude": "27.931043",
    "longitude": "-82.454952",
    "market": 144,
    "marketname": "Tampa-1",
    "solutionid": 6276391,
    "status": "COMPLETED",
    "solutiontype": "MODIFICATION",
    "createdby": "TORRSA4",
    "area": "SOUTH"
  },
  {
    "solutionname": "HILLSBOROUGH FAIRGROUNDS-144760-0",
    "latitude": "27.892766",
    "longitude": "-82.528582",
    "market": 144,
    "marketname": "Tampa-1",
    "solutionid": 7026915,
    "status": "COMPLETED",
    "solutiontype": "MODIFICATION",
    "createdby": "TORRSA4",
    "area": "SOUTH"
  },
  {
    "solutionname": "TAMPA AIRPORT-144822-0",
    "latitude": "28.032857",
    "longitude": "-82.384619",
    "market": 144,
    "marketname": "Tampa-1",
    "solutionid": 7652157,
    "status": "ACTIVE",
    "solutiontype": "MODIFICATION",
    "createdby": "TORRSA4",
    "area": "SOUTH"
  },
  {
    "solutionname": "USF_Police Tower_Temp-144041-1-132213",
    "latitude": "27.883469",
    "longitude": "-82.332538",
    "market": 144,
    "marketname": "Tampa-1",
    "solutionid": 7540200,
    "status": "COMPLETED",
    "solutiontype": "MODIFICATION",
    "createdby": "TORRSA4",
    "area": "SOUTH"
  },
  {
    "solutionname": "Peter Rafferty (Sequoia)",
    "latitude": "28.044329",
    "longitude": "-82.516122",
    "market": 144,
    "marketname": "Tampa-1",
    "solutionid": 6463662,
    "status": "COMPLETED",
    "solutiontype": "MODIFICATION",
    "createdby": "TORRSA4",
    "area": "SOUTH"
  },
  {
    "solutionname": "144043 -850 -5MHz",
    "latitude": "27.981220",
    "longitude": "-82.483075",
    "market": 144,
    "marketname": "Tampa-1",
    "solutionid": 6290418,
    "status": "COMPLETED",
    "solutiontype": "MODIFICATION",
    "createdby": "TORRSA4",
    "area": "SOUTH"
  },
  {
    "solutionname": "144405 Sheraton River Walk",
    "latitude": "28.013262",
    "longitude": "-82.476523",
    "market": 144,
    "marketname": "Tampa-1",
    "solutionid": 6527339,
    "status": "COMPLETED",
    "solutiontype": "MCR",
    "createdby": "TORRSA4",
    "area": "SOUTH"
  },
  {
    "solutionname": "WIREGRASS-MCR-668923",
    "latitude": "28.019857",
    "longitude": "-82.517323",
    "market": 144,
    "marketname": "Tampa-1",
    "solutionid": 7349576,
    "status": "COMPLETED",
    "solutiontype": "MCR",
    "createdby": "TORRSA4",
    "area": "SOUTH"
  },
  {
    "solutionname": "DIEZ #1-144038-132210",
    "latitude": "27.972747",
    "longitude": "-82.416065",
    "market": 144,
    "marketname": "Tampa-1",
    "solutionid": 7386715,
    "status": "COMPLETED",
    "solutiontype": "MODIFICATION",
    "createdby": "TORRSA4",
    "area": "SOUTH"
  },
  {
    "solutionname": "TIA-144858-230470",
    "latitude": "27.932834",
    "longitude": "-82.463862",
    "market": 144,
    "marketname": "Tampa-1",
    "solutionid": 7196770,
    "status": "COMPLETED",
    "solutiontype": "MODIFICATION",
    "createdby": "TORRSA4",
    "area": "SOUTH"
  },
  {
    "solutionname": "HYATT-144368-1-275656",
    "latitude": "27.997307",
    "longitude": "-82.487580",
    "market": 144,
    "marketname": "Tampa-1",
    "solutionid": 7751549,
    "status": "COMPLETED",
    "solutiontype": "MODIFICATION",
    "createdby": "TORRSA4",
    "area": "SOUTH"
  },
  {
    "solutionname": "VERTEX ROSINA-144205-0",
    "latitude": "27.882400",
    "longitude": "-82.440689",
    "market": 144,
    "marketname": "Tampa-1",
    "solutionid": 7344968,
    "status": "COMPLETED",
    "solutiontype": "MODIFICATION",
    "createdby": "TORRSA4",
    "area": "SOUTH"
  },
  {
    "solutionname": "SE PLANT CITY-144094-132323",
    "latitude": "27.904007",
    "longitude": "-82.459934",
    "market": 144,
    "marketname": "Tampa-1",
    "solutionid": 7508776,
    "status": "COMPLETED",
    "solutiontype": "MODIFICATION",
    "createdby": "TORRSA4",
    "area": "SOUTH"
  },
  {
    "solutionname": "089046 OSCEOLA-144-L-Sub6-Prep-7430842",
    "latitude": "28.041833",
    "longitude": "-82.543088",
    "market": 144,
    "marketname": "Tampa-1",
    "solutionid": 7777238,
    "status": "COMPLETED",
    "solutiontype": "MODIFICATION",
    "createdby": "TORRSA4",
    "area": "SOUTH"
  },
  {
    "solutionname": "PRIMESITE BRUCE B (266)-144266-0",
    "latitude": "27.915559",
    "longitude": "-82.354888",
    "market": 144,
    "marketname": "Tampa-1",
    "solutionid": 7389040,
    "status": "COMPLETED",
    "solutiontype": "MODIFICATION",
    "createdby": "TORRSA4",
    "area": "SOUTH"
  },
  {
    "solutionname": "SHOPPES OF CARROLLWOOD-144037-132207",
    "latitude": "28.009409",
    "longitude": "-82.330113",
    "market": 144,
    "marketname": "Tampa-1",
    "solutionid": 7517468,
    "status": "ACTIVE",
    "solutiontype": "MODIFICATION",
    "createdby": "TORRSA4",
    "area": "SOUTH"
  },
  {
    "solutionname": "KENNEDY-444851-2-230565",
    "latitude": "28.024443",
    "longitude": "-82.528321",
    "market": 144,
    "marketname": "Tampa-1",
    "solutionid": 7528907,
    "status": "COMPLETED",
    "solutiontype": "MODIFICATION",
    "createdby": "TORRSA4",
    "area": "SOUTH"
  },
  {
    "solutionname": "FL CHEVAL-144856-230466",
    "latitude": "27.895656",
    "longitude": "-82.531066",
    "market": 144,
    "marketname": "Tampa-1",
    "solutionid": 7361423,
    "status": "COMPLETED",
    "solutiontype": "MODIFICATION",
    "createdby": "TORRSA4",
    "area": "SOUTH"
  },
  {
    "solutionname": "MUNRO-444362-3-130229",
    "latitude": "27.991710",
    "longitude": "-82.478808",
    "market": 144,
    "marketname": "Tampa-1",
    "solutionid": 7542597,
    "status": "COMPLETED",
    "solutiontype": "MODIFICATION",
    "createdby": "TORRSA4",
    "area": "SOUTH"
  },
  {
    "solutionname": "WESTSHORE SOUTH-144883-238110",
    "latitude": "27.972848",
    "longitude": "-82.545684",
    "market": 144,
    "marketname": "Tampa-1",
    "solutionid": 7353959,
    "status": "COMPLETED",
    "solutiontype": "MODIFICATION",
    "createdby": "TORRSA4",
    "area": "SOUTH"
  },
  {
    "solutionname": "085541 - B-144-L-Sub6-8270268",
    "latitude": "28.017390",
    "longitude": "-82.530919",
    "market": 144,
    "marketname": "Tampa-1",
    "solutionid": 8334087,
    "status": "COMPLETED",
    "solutiontype": "MODIFICATION",
    "createdby": "TORRSA4",
    "area": "SOUTH"
  },
  {
    "solutionname": "PINNACLE HYDE PARK-144062-132243",
    "latitude": "27.922799",
    "longitude": "-82.389102",
    "market": 144,
    "marketname": "Tampa-1",
    "solutionid": 7196869,
    "status": "COMPLETED",
    "solutiontype": "MODIFICATION",
    "createdby": "TORRSA4",
    "area": "SOUTH"
  },
  {
    "solutionname": "144040 -PCS -10MHz",
    "latitude": "28.017352",
    "longitude": "-82.530273",
    "market": 144,
    "marketname": "Tampa-1",
    "solutionid": 7409620,
    "status": "COMPLETED",
    "solutiontype": "MODIFICATION",
    "createdby": "TORRSA4",
    "area": "SOUTH"
  },
  {
    "solutionname": "PINNACLE HYDE PARK-144062-132243",
    "latitude": "27.930374",
    "longitude": "-82.378650",
    "market": 144,
    "marketname": "Tampa-1",
    "solutionid": 7196870,
    "status": "COMPLETED",
    "solutiontype": "MODIFICATION",
    "createdby": "TORRSA4",
    "area": "SOUTH"
  },
  {
    "solutionname": "TAMPA-144870-230474",
    "latitude": "27.972752",
    "longitude": "-82.449422",
    "market": 144,
    "marketname": "Tampa-1",
    "solutionid": 7197001,
    "status": "COMPLETED",
    "solutiontype": "MODIFICATION",
    "createdby": "TORRSA4",
    "area": "SOUTH"
  },
  {
    "solutionname": "085803 DOCKSIDE CONDO (60)-144-144060-28GHz-674050",
    "latitude": "28.014838",
    "longitude": "-82.553146",
    "market": 144,
    "marketname": "Tampa-1",
    "solutionid": 6463934,
    "status": "COMPLETED",
    "solutiontype": "MODIFICATION",
    "createdby": "TORRSA4",
    "area": "SOUTH"
  },
  {
    "solutionname": "TIA-144858-230470",
    "latitude": "27.940409",
    "longitude": "-82.453409",
    "market": 144,
    "marketname": "Tampa-1",
    "solutionid": 7196771,
    "status": "COMPLETED",
    "solutiontype": "MODIFICATION",
    "createdby": "TORRSA4",
    "area": "SOUTH"
  },
  {
    "solutionname": "086811 SPRINT UCH WINGATE (147)-144-L-Sub6-7744822",
    "latitude": "27.972051",
    "longitude": "-82.326643",
    "market": 144,
    "marketname": "Tampa-1",
    "solutionid": 7827040,
    "status": "COMPLETED",
    "solutiontype": "MODIFICATION",
    "createdby": "TORRSA4",
    "area": "SOUTH"
  },
  {
    "solutionname": "APT RUSKIN-144116-132008",
    "latitude": "27.923086",
    "longitude": "-82.425919",
    "market": 144,
    "marketname": "Tampa-1",
    "solutionid": 7543842,
    "status": "COMPLETED",
    "solutiontype": "MODIFICATION",
    "createdby": "TORRSA4",
    "area": "SOUTH"
  },
  {
    "solutionname": "I275 ROOSEVELT C-Band Prep",
    "latitude": "27.998479",
    "longitude": "-82.453799",
    "market": 144,
    "marketname": "Tampa-1",
    "solutionid": 8985568,
    "status": "COMPLETED",
    "solutiontype": "MODIFICATION",
    "createdby": "TORRSA4",
    "area": "SOUTH"
  },
  {
    "solutionname": "TAMPA-144870-230474",
    "latitude": "27.965177",
    "longitude": "-82.459874",
    "market": 144,
    "marketname": "Tampa-1",
    "solutionid": 7197000,
    "status": "COMPLETED",
    "solutiontype": "MODIFICATION",
    "createdby": "TORRSA4",
    "area": "SOUTH"
  },
  {
    "solutionname": "AMERICAN BRANCHTON-144181-132006",
    "latitude": "27.877613",
    "longitude": "-82.422422",
    "market": 144,
    "marketname": "Tampa-1",
    "solutionid": 7355050,
    "status": "COMPLETED",
    "solutiontype": "MODIFICATION",
    "createdby": "TORRSA4",
    "area": "SOUTH"
  },
  {
    "solutionname": "CHOICE TOOL SUPPLY-144396-0",
    "latitude": "27.947021",
    "longitude": "-82.370959",
    "market": 144,
    "marketname": "Tampa-1",
    "solutionid": 7355009,
    "status": "COMPLETED",
    "solutiontype": "MODIFICATION",
    "createdby": "TORRSA4",
    "area": "SOUTH"
  },
  {
    "solutionname": "SOUTH APOLLO BEACH C-Band Prep",
    "latitude": "27.907385",
    "longitude": "-82.487275",
    "market": 144,
    "marketname": "Tampa-1",
    "solutionid": 7534284,
    "status": "COMPLETED",
    "solutiontype": "MODIFICATION",
    "createdby": "TORRSA4",
    "area": "SOUTH"
  },
  {
    "solutionname": "TAMPA AIRPORT-144822-0",
    "latitude": "28.040432",
    "longitude": "-82.374167",
    "market": 144,
    "marketname": "Tampa-1",
    "solutionid": 7652158,
    "status": "ACTIVE",
    "solutiontype": "MODIFICATION",
    "createdby": "TORRSA4",
    "area": "SOUTH"
  },
  {
    "solutionname": "144042 -4TX 700-10MHz",
    "latitude": "28.008505",
    "longitude": "-82.507283",
    "market": 144,
    "marketname": "Tampa-1",
    "solutionid": 7389278,
    "status": "COMPLETED",
    "solutiontype": "MODIFICATION",
    "createdby": "TORRSA4",
    "area": "SOUTH"
  },
  {
    "solutionname": "ATC FLORA - E-144406-290783",
    "latitude": "28.012164",
    "longitude": "-82.372563",
    "market": 144,
    "marketname": "Tampa-1",
    "solutionid": 7346490,
    "status": "COMPLETED",
    "solutiontype": "MODIFICATION",
    "createdby": "TORRSA4",
    "area": "SOUTH"
  },
  {
    "solutionname": "ATC Brandon-144339-0",
    "latitude": "27.991727",
    "longitude": "-82.374786",
    "market": 144,
    "marketname": "Tampa-1",
    "solutionid": 7345158,
    "status": "COMPLETED",
    "solutiontype": "MODIFICATION",
    "createdby": "TORRSA4",
    "area": "SOUTH"
  },
  {
    "solutionname": "ATC RIVERVIEW-144473-176608",
    "latitude": "27.947530",
    "longitude": "-82.339671",
    "market": 144,
    "marketname": "Tampa-1",
    "solutionid": 7344174,
    "status": "COMPLETED",
    "solutiontype": "MODIFICATION",
    "createdby": "TORRSA4",
    "area": "SOUTH"
  },
  {
    "solutionname": "TRM FAIRFIELD (365)-144365-0",
    "latitude": "28.018233",
    "longitude": "-82.392569",
    "market": 144,
    "marketname": "Tampa-1",
    "solutionid": 7334502,
    "status": "COMPLETED",
    "solutiontype": "MODIFICATION",
    "createdby": "TORRSA4",
    "area": "SOUTH"
  },
  {
    "solutionname": "Peter Rafferty (Sequoia)",
    "latitude": "28.051904",
    "longitude": "-82.505670",
    "market": 144,
    "marketname": "Tampa-1",
    "solutionid": 6463663,
    "status": "COMPLETED",
    "solutiontype": "MODIFICATION",
    "createdby": "TORRSA4",
    "area": "SOUTH"
  },
  {
    "solutionname": "ATC Thonotosassa",
    "latitude": "27.886377",
    "longitude": "-82.547637",
    "market": 144,
    "marketname": "Tampa-1",
    "solutionid": 6292111,
    "status": "COMPLETED",
    "solutiontype": "MODIFICATION",
    "createdby": "TORRSA4",
    "area": "SOUTH"
  },
  {
    "solutionname": "SPECTRASITE FANTASIA-144398-0",
    "latitude": "27.991138",
    "longitude": "-82.453050",
    "market": 144,
    "marketname": "Tampa-1",
    "solutionid": 7344255,
    "status": "COMPLETED",
    "solutiontype": "MODIFICATION",
    "createdby": "TORRSA4",
    "area": "SOUTH"
  },
  {
    "solutionname": "144405 Sheraton River Walk",
    "latitude": "28.020838",
    "longitude": "-82.466071",
    "market": 144,
    "marketname": "Tampa-1",
    "solutionid": 6527340,
    "status": "COMPLETED",
    "solutiontype": "MCR",
    "createdby": "TORRSA4",
    "area": "SOUTH"
  },
  {
    "solutionname": "WIREGRASS-MCR-668923",
    "latitude": "27.905611",
    "longitude": "-82.412802",
    "market": 144,
    "marketname": "Tampa-1",
    "solutionid": 7349586,
    "status": "COMPLETED",
    "solutiontype": "MCR",
    "createdby": "TORRSA4",
    "area": "SOUTH"
  },
  {
    "solutionname": "ACME DOVER-144129-132528",
    "latitude": "27.885797",
    "longitude": "-82.498332",
    "market": 144,
    "marketname": "Tampa-1",
    "solutionid": 7187559,
    "status": "COMPLETED",
    "solutiontype": "MODIFICATION",
    "createdby": "TORRSA4",
    "area": "SOUTH"
  },
  {
    "solutionname": "ACME DOVER-144129-132528",
    "latitude": "27.870647",
    "longitude": "-82.519237",
    "market": 144,
    "marketname": "Tampa-1",
    "solutionid": 7187557,
    "status": "COMPLETED",
    "solutiontype": "MODIFICATION",
    "createdby": "TORRSA4",
    "area": "SOUTH"
  },
  {
    "solutionname": "FL LIVE OAK PRIDE-144885-238433",
    "latitude": "28.020516",
    "longitude": "-82.435755",
    "market": 144,
    "marketname": "Tampa-1",
    "solutionid": 7508365,
    "status": "COMPLETED",
    "solutiontype": "MODIFICATION",
    "createdby": "TORRSA4",
    "area": "SOUTH"
  },
  {
    "solutionname": "FL BOYETTE-144-L-Sub6-9235391",
    "latitude": "28.054304",
    "longitude": "-82.445118",
    "market": 144,
    "marketname": "Tampa-1",
    "solutionid": 9425449,
    "status": "ACTIVE",
    "solutiontype": "MODIFICATION",
    "createdby": "TORRSA4",
    "area": "SOUTH"
  },
  {
    "solutionname": "144034 -AWS -20MHz",
    "latitude": "27.903694",
    "longitude": "-82.445904",
    "market": 144,
    "marketname": "Tampa-1",
    "solutionid": 7053352,
    "status": "COMPLETED",
    "solutiontype": "MODIFICATION",
    "createdby": "TORRSA4",
    "area": "SOUTH"
  },
  {
    "solutionname": "SBA Morgan",
    "latitude": "27.880125",
    "longitude": "-82.466767",
    "market": 144,
    "marketname": "Tampa-1",
    "solutionid": 7353094,
    "status": "COMPLETED",
    "solutiontype": "MODIFICATION",
    "createdby": "TORRSA4",
    "area": "SOUTH"
  },
  {
    "solutionname": "APT RUSKIN-144116-132008",
    "latitude": "27.930662",
    "longitude": "-82.415467",
    "market": 144,
    "marketname": "Tampa-1",
    "solutionid": 7543843,
    "status": "COMPLETED",
    "solutiontype": "MODIFICATION",
    "createdby": "TORRSA4",
    "area": "SOUTH"
  },
  {
    "solutionname": "AMT MOON LAKE-144189-256196",
    "latitude": "27.979566",
    "longitude": "-82.515824",
    "market": 144,
    "marketname": "Tampa-1",
    "solutionid": 7523007,
    "status": "COMPLETED",
    "solutiontype": "MODIFICATION",
    "createdby": "TORRSA4",
    "area": "SOUTH"
  },
  {
    "solutionname": "LAND O LAKES-144837-230492",
    "latitude": "27.933987",
    "longitude": "-82.342091",
    "market": 144,
    "marketname": "Tampa-1",
    "solutionid": 7214026,
    "status": "COMPLETED",
    "solutiontype": "MODIFICATION",
    "createdby": "TORRSA4",
    "area": "SOUTH"
  },
  {
    "solutionname": "SBA/Towerco / Nextel Swann Park",
    "latitude": "27.933995",
    "longitude": "-82.384867",
    "market": 144,
    "marketname": "Tampa-1",
    "solutionid": 6586796,
    "status": "COMPLETED",
    "solutiontype": "MODIFICATION",
    "createdby": "TORRSA4",
    "area": "SOUTH"
  },
  {
    "solutionname": "DT TAMPA NODE 42",
    "latitude": "28.001375",
    "longitude": "-82.508590",
    "market": 144,
    "marketname": "Tampa-1",
    "solutionid": 6345524,
    "status": "COMPLETED",
    "solutiontype": "SC",
    "createdby": "TORRSA4",
    "area": "SOUTH"
  },
  {
    "solutionname": "WATERWORKS PARK",
    "latitude": "27.944720",
    "longitude": "-82.381368",
    "market": 144,
    "marketname": "Tampa-1",
    "solutionid": 6321564,
    "status": "COMPLETED",
    "solutiontype": "SC",
    "createdby": "TORRSA4",
    "area": "SOUTH"
  },
  {
    "solutionname": "TAMPA RIVERWALK 03",
    "latitude": "28.043816",
    "longitude": "-82.506793",
    "market": 144,
    "marketname": "Tampa-1",
    "solutionid": 6321552,
    "status": "COMPLETED",
    "solutiontype": "SC",
    "createdby": "TORRSA4",
    "area": "SOUTH"
  },
  {
    "solutionname": "TAMPA RIVERWALK 02",
    "latitude": "27.960486",
    "longitude": "-82.381766",
    "market": 144,
    "marketname": "Tampa-1",
    "solutionid": 6321541,
    "status": "COMPLETED",
    "solutiontype": "SC",
    "createdby": "TORRSA4",
    "area": "SOUTH"
  },
  {
    "solutionname": "TAMPA RIVERWALK 01",
    "latitude": "27.892308",
    "longitude": "-82.475835",
    "market": 144,
    "marketname": "Tampa-1",
    "solutionid": 6321532,
    "status": "COMPLETED",
    "solutiontype": "SC",
    "createdby": "TORRSA4",
    "area": "SOUTH"
  },
  {
    "solutionname": "Frontier Howard",
    "latitude": "27.970254",
    "longitude": "-82.493178",
    "market": 144,
    "marketname": "Tampa-1",
    "solutionid": 6505914,
    "status": "COMPLETED",
    "solutiontype": "SC",
    "createdby": "TORRSA4",
    "area": "SOUTH"
  },
  {
    "solutionname": "Julian B Lane Riverfront Park-SC-730281",
    "latitude": "28.014930",
    "longitude": "-82.486436",
    "market": 144,
    "marketname": "Tampa-1",
    "solutionid": 6577326,
    "status": "COMPLETED",
    "solutiontype": "SC",
    "createdby": "TORRSA4",
    "area": "SOUTH"
  },
  {
    "solutionname": "ARMATURE WEST",
    "latitude": "27.948012",
    "longitude": "-82.496806",
    "market": 144,
    "marketname": "Tampa-1",
    "solutionid": 5920065,
    "status": "COMPLETED",
    "solutiontype": "SC",
    "createdby": "TORRSA4",
    "area": "SOUTH"
  },
  {
    "solutionname": "STRAZ 003-SC-848441",
    "latitude": "27.959391",
    "longitude": "-82.416840",
    "market": 144,
    "marketname": "Tampa-1",
    "solutionid": 6936456,
    "status": "COMPLETED",
    "solutiontype": "SC",
    "createdby": "TORRSA4",
    "area": "SOUTH"
  },
  {
    "solutionname": "STRAZ 001-SC-827832",
    "latitude": "27.982732",
    "longitude": "-82.406786",
    "market": 144,
    "marketname": "Tampa-1",
    "solutionid": 6936434,
    "status": "COMPLETED",
    "solutiontype": "SC",
    "createdby": "TORRSA4",
    "area": "SOUTH"
  },
  {
    "solutionname": "RJS SOUTH PARKING 006-ODAS-382125",
    "latitude": "28.031653",
    "longitude": "-82.403122",
    "market": 144,
    "marketname": "Tampa-1",
    "solutionid": 6718159,
    "status": "COMPLETED",
    "solutiontype": "ODAS",
    "createdby": "TORRSA4",
    "area": "SOUTH"
  },
  {
    "solutionname": "RJS NE PARKING NODE 3-ODAS-636991",
    "latitude": "28.001352",
    "longitude": "-82.444930",
    "market": 144,
    "marketname": "Tampa-1",
    "solutionid": 6718155,
    "status": "COMPLETED",
    "solutiontype": "ODAS",
    "createdby": "TORRSA4",
    "area": "SOUTH"
  },
  {
    "solutionname": "089071 EGYPTLK-144-144813-28GHz-478696",
    "latitude": "27.882713",
    "longitude": "-82.397031",
    "market": 144,
    "marketname": "Tampa-1",
    "solutionid": 6400712,
    "status": "COMPLETED",
    "solutiontype": "MODIFICATION",
    "createdby": "TORRSA4",
    "area": "SOUTH"
  },
  {
    "solutionname": "Telecom Park - 850",
    "latitude": "27.885442",
    "longitude": "-82.469529",
    "market": 144,
    "marketname": "Tampa-1",
    "solutionid": 6463942,
    "status": "COMPLETED",
    "solutiontype": "MODIFICATION",
    "createdby": "TORRSA4",
    "area": "SOUTH"
  },
  {
    "solutionname": "SBA/Towerco / Nextel Swann Park",
    "latitude": "27.972119",
    "longitude": "-82.390557",
    "market": 144,
    "marketname": "Tampa-1",
    "solutionid": 7037284,
    "status": "COMPLETED",
    "solutiontype": "MODIFICATION",
    "createdby": "TORRSA4",
    "area": "SOUTH"
  },
  {
    "solutionname": "085801 SEMINOLE HEIGHTS (122)-144-144122-28GHz-342132-342132",
    "latitude": "28.036812",
    "longitude": "-82.543003",
    "market": 144,
    "marketname": "Tampa-1",
    "solutionid": 6519893,
    "status": "COMPLETED",
    "solutiontype": "MODIFICATION",
    "createdby": "TORRSA4",
    "area": "SOUTH"
  },
  {
    "solutionname": "RJS NE PARKING NODE 3-ODAS-636991",
    "latitude": "27.993776",
    "longitude": "-82.455383",
    "market": 144,
    "marketname": "Tampa-1",
    "solutionid": 6718154,
    "status": "COMPLETED",
    "solutiontype": "ODAS",
    "createdby": "TORRSA4",
    "area": "SOUTH"
  },
  {
    "solutionname": "RJS SOUTH PARKING 006-ODAS-382125",
    "latitude": "28.024078",
    "longitude": "-82.413574",
    "market": 144,
    "marketname": "Tampa-1",
    "solutionid": 6718158,
    "status": "COMPLETED",
    "solutiontype": "ODAS",
    "createdby": "TORRSA4",
    "area": "SOUTH"
  },
  {
    "solutionname": "HARBOUR ISLAND NODE 9-SC-380322",
    "latitude": "27.876972",
    "longitude": "-82.503094",
    "market": 144,
    "marketname": "Tampa-1",
    "solutionid": 6422883,
    "status": "COMPLETED",
    "solutiontype": "SC",
    "createdby": "TORRSA4",
    "area": "SOUTH"
  },
  {
    "solutionname": "ARMATURE WEST",
    "latitude": "27.940436",
    "longitude": "-82.507258",
    "market": 144,
    "marketname": "Tampa-1",
    "solutionid": 5920064,
    "status": "COMPLETED",
    "solutiontype": "SC",
    "createdby": "TORRSA4",
    "area": "SOUTH"
  },
  {
    "solutionname": "Julian B Lane Riverfront Park-SC-730281",
    "latitude": "28.022505",
    "longitude": "-82.475984",
    "market": 144,
    "marketname": "Tampa-1",
    "solutionid": 6577327,
    "status": "COMPLETED",
    "solutiontype": "SC",
    "createdby": "TORRSA4",
    "area": "SOUTH"
  },
  {
    "solutionname": "TPA RIVERWALK 04-SC-810246",
    "latitude": "27.975823",
    "longitude": "-82.496091",
    "market": 144,
    "marketname": "Tampa-1",
    "solutionid": 6577371,
    "status": "COMPLETED",
    "solutiontype": "SC",
    "createdby": "TORRSA4",
    "area": "SOUTH"
  },
  {
    "solutionname": "086336 - Hillsborough Fairgrounds-144-28GHz-6788462",
    "latitude": "27.907193",
    "longitude": "-82.405136",
    "market": 144,
    "marketname": "Tampa-1",
    "solutionid": 6987088,
    "status": "COMPLETED",
    "solutiontype": "MODIFICATION",
    "createdby": "TORRSA4",
    "area": "SOUTH"
  },
  {
    "solutionname": "WATERWORKS PARK",
    "latitude": "27.952296",
    "longitude": "-82.370915",
    "market": 144,
    "marketname": "Tampa-1",
    "solutionid": 6321565,
    "status": "COMPLETED",
    "solutiontype": "SC",
    "createdby": "TORRSA4",
    "area": "SOUTH"
  },
  {
    "solutionname": "WS GRADY",
    "latitude": "27.905244",
    "longitude": "-82.514117",
    "market": 144,
    "marketname": "Tampa-1",
    "solutionid": 6291035,
    "status": "COMPLETED",
    "solutiontype": "SC",
    "createdby": "TORRSA4",
    "area": "SOUTH"
  },
  {
    "solutionname": "HYDE PARK 013",
    "latitude": "27.886812",
    "longitude": "-82.395140",
    "market": 144,
    "marketname": "Tampa-1",
    "solutionid": 7012944,
    "status": "COMPLETED",
    "solutiontype": "SC",
    "createdby": "TORRSA4",
    "area": "SOUTH"
  },
  {
    "solutionname": "HYDE PARK 010",
    "latitude": "27.985907",
    "longitude": "-82.520566",
    "market": 144,
    "marketname": "Tampa-1",
    "solutionid": 7012932,
    "status": "COMPLETED",
    "solutiontype": "SC",
    "createdby": "TORRSA4",
    "area": "SOUTH"
  },
  {
    "solutionname": "HARBOUR ISLAND NODE 9-SC-380322",
    "latitude": "27.884547",
    "longitude": "-82.492642",
    "market": 144,
    "marketname": "Tampa-1",
    "solutionid": 6422884,
    "status": "COMPLETED",
    "solutiontype": "SC",
    "createdby": "TORRSA4",
    "area": "SOUTH"
  },
  {
    "solutionname": "ARMATURE WEST",
    "latitude": "27.925286",
    "longitude": "-82.528162",
    "market": 144,
    "marketname": "Tampa-1",
    "solutionid": 5920062,
    "status": "COMPLETED",
    "solutiontype": "SC",
    "createdby": "TORRSA4",
    "area": "SOUTH"
  },
  {
    "solutionname": "Frontier Howard",
    "latitude": "27.949652",
    "longitude": "-82.323256",
    "market": 144,
    "marketname": "Tampa-1",
    "solutionid": 7013479,
    "status": "COMPLETED",
    "solutiontype": "SC",
    "createdby": "TORRSA4",
    "area": "SOUTH"
  },
  {
    "solutionname": "DT TAMPA NODE 47-SC-631862",
    "latitude": "27.909855",
    "longitude": "-82.372712",
    "market": 144,
    "marketname": "Tampa-1",
    "solutionid": 6345537,
    "status": "COMPLETED",
    "solutiontype": "SC",
    "createdby": "TORRSA4",
    "area": "SOUTH"
  },
  {
    "solutionname": "DT TAMPA NODE 42",
    "latitude": "28.008951",
    "longitude": "-82.498137",
    "market": 144,
    "marketname": "Tampa-1",
    "solutionid": 6345525,
    "status": "COMPLETED",
    "solutiontype": "SC",
    "createdby": "TORRSA4",
    "area": "SOUTH"
  },
  {
    "solutionname": "TAMPA RIVERWALK 03",
    "latitude": "28.051391",
    "longitude": "-82.496341",
    "market": 144,
    "marketname": "Tampa-1",
    "solutionid": 6321553,
    "status": "COMPLETED",
    "solutiontype": "SC",
    "createdby": "TORRSA4",
    "area": "SOUTH"
  },
  {
    "solutionname": "TAMPA RIVERWALK 02",
    "latitude": "27.968062",
    "longitude": "-82.371314",
    "market": 144,
    "marketname": "Tampa-1",
    "solutionid": 6321542,
    "status": "COMPLETED",
    "solutiontype": "SC",
    "createdby": "TORRSA4",
    "area": "SOUTH"
  },
  {
    "solutionname": "TAMPA RIVERWALK 01",
    "latitude": "27.899883",
    "longitude": "-82.465383",
    "market": 144,
    "marketname": "Tampa-1",
    "solutionid": 6321533,
    "status": "COMPLETED",
    "solutiontype": "SC",
    "createdby": "TORRSA4",
    "area": "SOUTH"
  },
  {
    "solutionname": "BRANDON NODE 10-SC-380320",
    "latitude": "27.876646",
    "longitude": "-82.393703",
    "market": 144,
    "marketname": "Tampa-1",
    "solutionid": 6317843,
    "status": "COMPLETED",
    "solutiontype": "SC",
    "createdby": "TORRSA4",
    "area": "SOUTH"
  },
  {
    "solutionname": "WS MANHATTAN",
    "latitude": "27.919664",
    "longitude": "-82.462991",
    "market": 144,
    "marketname": "Tampa-1",
    "solutionid": 6426400,
    "status": "COMPLETED",
    "solutiontype": "SC",
    "createdby": "TORRSA4",
    "area": "SOUTH"
  },
  {
    "solutionname": "WS LOIS",
    "latitude": "27.889362",
    "longitude": "-82.504799",
    "market": 144,
    "marketname": "Tampa-1",
    "solutionid": 6426396,
    "status": "COMPLETED",
    "solutiontype": "SC",
    "createdby": "TORRSA4",
    "area": "SOUTH"
  },
  {
    "solutionname": "WS CYPRESS",
    "latitude": "28.049061",
    "longitude": "-82.546608",
    "market": 144,
    "marketname": "Tampa-1",
    "solutionid": 6426392,
    "status": "COMPLETED",
    "solutiontype": "SC",
    "createdby": "TORRSA4",
    "area": "SOUTH"
  },
  {
    "solutionname": "089071 EGYPTLK-144-144813-28GHz-478696",
    "latitude": "28.002096",
    "longitude": "-82.491327",
    "market": 144,
    "marketname": "Tampa-1",
    "solutionid": 7056149,
    "status": "COMPLETED",
    "solutiontype": "MODIFICATION",
    "createdby": "TORRSA4",
    "area": "SOUTH"
  },
  {
    "solutionname": "Telecom Park - AWS",
    "latitude": "27.893017",
    "longitude": "-82.459077",
    "market": 144,
    "marketname": "Tampa-1",
    "solutionid": 6463943,
    "status": "COMPLETED",
    "solutiontype": "MODIFICATION",
    "createdby": "TORRSA4",
    "area": "SOUTH"
  },
  {
    "solutionname": "ARMATURE WEST",
    "latitude": "27.932861",
    "longitude": "-82.517710",
    "market": 144,
    "marketname": "Tampa-1",
    "solutionid": 5920063,
    "status": "COMPLETED",
    "solutiontype": "SC",
    "createdby": "TORRSA4",
    "area": "SOUTH"
  },
  {
    "solutionname": "Frontier Howard",
    "latitude": "27.957227",
    "longitude": "-82.552804",
    "market": 144,
    "marketname": "Tampa-1",
    "solutionid": 7013480,
    "status": "COMPLETED",
    "solutiontype": "SC",
    "createdby": "TORRSA4",
    "area": "SOUTH"
  },
  {
    "solutionname": "HARBOUR ISLAND NODE 9-SC-380322",
    "latitude": "27.892123",
    "longitude": "-82.482190",
    "market": 144,
    "marketname": "Tampa-1",
    "solutionid": 6422885,
    "status": "COMPLETED",
    "solutiontype": "SC",
    "createdby": "TORRSA4",
    "area": "SOUTH"
  },
  {
    "solutionname": "DT TAMPA NODE 42",
    "latitude": "28.016526",
    "longitude": "-82.487685",
    "market": 144,
    "marketname": "Tampa-1",
    "solutionid": 6345526,
    "status": "COMPLETED",
    "solutiontype": "SC",
    "createdby": "TORRSA4",
    "area": "SOUTH"
  },
  {
    "solutionname": "089071 EGYPTLK-144-144813-28GHz-478696",
    "latitude": "27.890288",
    "longitude": "-82.386579",
    "market": 144,
    "marketname": "Tampa-1",
    "solutionid": 6400713,
    "status": "COMPLETED",
    "solutiontype": "MODIFICATION",
    "createdby": "TORRSA4",
    "area": "SOUTH"
  },
  {
    "solutionname": "HAMILTON_BANK-144-144049-5G",
    "latitude": "27.995219",
    "longitude": "-82.355910",
    "market": 144,
    "marketname": "Tampa-1",
    "solutionid": 6397065,
    "status": "COMPLETED",
    "solutiontype": "MODIFICATION",
    "createdby": "TORRSA4",
    "area": "SOUTH"
  },
  {
    "solutionname": "GOMEZ AVE-144-144489-28GHz-5021558",
    "latitude": "27.937218",
    "longitude": "-82.443652",
    "market": 144,
    "marketname": "Tampa-1",
    "solutionid": 7317712,
    "status": "COMPLETED",
    "solutiontype": "MODIFICATION",
    "createdby": "TORRSA4",
    "area": "SOUTH"
  },
  {
    "solutionname": "085801 SEMINOLE HEIGHTS (122)-144-144122-28GHz-342132-342132",
    "latitude": "28.044387",
    "longitude": "-82.532551",
    "market": 144,
    "marketname": "Tampa-1",
    "solutionid": 6519894,
    "status": "COMPLETED",
    "solutiontype": "MODIFICATION",
    "createdby": "TORRSA4",
    "area": "SOUTH"
  },
  {
    "solutionname": "086336 - Hillsborough Fairgrounds-144-28GHz-6788462",
    "latitude": "27.899617",
    "longitude": "-82.415588",
    "market": 144,
    "marketname": "Tampa-1",
    "solutionid": 6987087,
    "status": "COMPLETED",
    "solutiontype": "MODIFICATION",
    "createdby": "TORRSA4",
    "area": "SOUTH"
  },
  {
    "solutionname": "TAMPA_GENERAL_HOSPITAL-144-144217-AWS3-342835",
    "latitude": "27.913830",
    "longitude": "-82.391054",
    "market": 144,
    "marketname": "Tampa-1",
    "solutionid": 6553937,
    "status": "COMPLETED",
    "solutiontype": "MODIFICATION",
    "createdby": "TORRSA4",
    "area": "SOUTH"
  },
  {
    "solutionname": "ARMATURE WEST",
    "latitude": "27.910135",
    "longitude": "-82.549067",
    "market": 144,
    "marketname": "Tampa-1",
    "solutionid": 5920060,
    "status": "COMPLETED",
    "solutiontype": "SC",
    "createdby": "TORRSA4",
    "area": "SOUTH"
  },
  {
    "solutionname": "HYDE PARK 010",
    "latitude": "27.978331",
    "longitude": "-82.531018",
    "market": 144,
    "marketname": "Tampa-1",
    "solutionid": 7012931,
    "status": "COMPLETED",
    "solutiontype": "SC",
    "createdby": "TORRSA4",
    "area": "SOUTH"
  },
  {
    "solutionname": "STRAZ 003-SC-848441",
    "latitude": "27.966966",
    "longitude": "-82.406388",
    "market": 144,
    "marketname": "Tampa-1",
    "solutionid": 6936457,
    "status": "COMPLETED",
    "solutiontype": "SC",
    "createdby": "TORRSA4",
    "area": "SOUTH"
  },
  {
    "solutionname": "HYDE PARK 017",
    "latitude": "27.962566",
    "longitude": "-82.530619",
    "market": 144,
    "marketname": "Tampa-1",
    "solutionid": 7012954,
    "status": "COMPLETED",
    "solutiontype": "SC",
    "createdby": "TORRSA4",
    "area": "SOUTH"
  },
  {
    "solutionname": "STRAZ 001-SC-827832",
    "latitude": "27.990307",
    "longitude": "-82.396334",
    "market": 144,
    "marketname": "Tampa-1",
    "solutionid": 6936435,
    "status": "COMPLETED",
    "solutiontype": "SC",
    "createdby": "TORRSA4",
    "area": "SOUTH"
  },
  {
    "solutionname": "BRANDON NODE 10-SC-380320",
    "latitude": "28.059071",
    "longitude": "-82.404155",
    "market": 144,
    "marketname": "Tampa-1",
    "solutionid": 6317842,
    "status": "COMPLETED",
    "solutiontype": "SC",
    "createdby": "TORRSA4",
    "area": "SOUTH"
  },
  {
    "solutionname": "HYDE PARK 013",
    "latitude": "27.879236",
    "longitude": "-82.405592",
    "market": 144,
    "marketname": "Tampa-1",
    "solutionid": 7012943,
    "status": "COMPLETED",
    "solutiontype": "SC",
    "createdby": "TORRSA4",
    "area": "SOUTH"
  },
  {
    "solutionname": "RJS NE PARKING NODE 5-ODAS-636993",
    "latitude": "27.880398",
    "longitude": "-82.547369",
    "market": 144,
    "marketname": "Tampa-1",
    "solutionid": 5936409,
    "status": "COMPLETED",
    "solutiontype": "ODAS",
    "createdby": "TORRSA4",
    "area": "SOUTH"
  },
  {
    "solutionname": "ARMATURE WEST",
    "latitude": "27.917710",
    "longitude": "-82.538615",
    "market": 144,
    "marketname": "Tampa-1",
    "solutionid": 5920061,
    "status": "COMPLETED",
    "solutiontype": "SC",
    "createdby": "TORRSA4",
    "area": "SOUTH"
  },
  {
    "solutionname": "RJS NE Parking Node 1",
    "latitude": "27.963042",
    "longitude": "-82.452855",
    "market": 144,
    "marketname": "Tampa-1",
    "solutionid": 6711679,
    "status": "COMPLETED",
    "solutiontype": "SC",
    "createdby": "TORRSA4",
    "area": "SOUTH"
  },
  {
    "solutionname": "WS GRADY",
    "latitude": "27.912819",
    "longitude": "-82.503665",
    "market": 144,
    "marketname": "Tampa-1",
    "solutionid": 6291036,
    "status": "COMPLETED",
    "solutiontype": "SC",
    "createdby": "TORRSA4",
    "area": "SOUTH"
  },
  {
    "solutionname": "STRAZ 003-SC-848441",
    "latitude": "27.974542",
    "longitude": "-82.395935",
    "market": 144,
    "marketname": "Tampa-1",
    "solutionid": 6936458,
    "status": "COMPLETED",
    "solutiontype": "SC",
    "createdby": "TORRSA4",
    "area": "SOUTH"
  },
  {
    "solutionname": "STRAZ 001-SC-827832",
    "latitude": "27.997883",
    "longitude": "-82.385882",
    "market": 144,
    "marketname": "Tampa-1",
    "solutionid": 6936436,
    "status": "COMPLETED",
    "solutiontype": "SC",
    "createdby": "TORRSA4",
    "area": "SOUTH"
  },
  {
    "solutionname": "HYDE PARK 010",
    "latitude": "27.993482",
    "longitude": "-82.510114",
    "market": 144,
    "marketname": "Tampa-1",
    "solutionid": 7012933,
    "status": "COMPLETED",
    "solutiontype": "SC",
    "createdby": "TORRSA4",
    "area": "SOUTH"
  },
  {
    "solutionname": "HYDE PARK 013",
    "latitude": "27.894387",
    "longitude": "-82.384688",
    "market": 144,
    "marketname": "Tampa-1",
    "solutionid": 7012945,
    "status": "COMPLETED",
    "solutiontype": "SC",
    "createdby": "TORRSA4",
    "area": "SOUTH"
  },
  {
    "solutionname": "HYDE PARK 017",
    "latitude": "27.977716",
    "longitude": "-82.509715",
    "market": 144,
    "marketname": "Tampa-1",
    "solutionid": 7012956,
    "status": "COMPLETED",
    "solutiontype": "SC",
    "createdby": "TORRSA4",
    "area": "SOUTH"
  },
  {
    "solutionname": "HARBOUR ISLAND NODE 9-SC-380322",
    "latitude": "27.899698",
    "longitude": "-82.471738",
    "market": 144,
    "marketname": "Tampa-1",
    "solutionid": 6422886,
    "status": "COMPLETED",
    "solutiontype": "SC",
    "createdby": "TORRSA4",
    "area": "SOUTH"
  },
  {
    "solutionname": "DT TAMPA NODE 42",
    "latitude": "28.024101",
    "longitude": "-82.477233",
    "market": 144,
    "marketname": "Tampa-1",
    "solutionid": 6345527,
    "status": "COMPLETED",
    "solutiontype": "SC",
    "createdby": "TORRSA4",
    "area": "SOUTH"
  },
  {
    "solutionname": "BRANDON NODE 10-SC-380320",
    "latitude": "27.884221",
    "longitude": "-82.383251",
    "market": 144,
    "marketname": "Tampa-1",
    "solutionid": 6317844,
    "status": "COMPLETED",
    "solutiontype": "SC",
    "createdby": "TORRSA4",
    "area": "SOUTH"
  },
  {
    "solutionname": "WS MARINER",
    "latitude": "27.957541",
    "longitude": "-82.410730",
    "market": 144,
    "marketname": "Tampa-1",
    "solutionid": 6426405,
    "status": "COMPLETED",
    "solutiontype": "SC",
    "createdby": "TORRSA4",
    "area": "SOUTH"
  },
  {
    "solutionname": "WS MANHATTAN",
    "latitude": "27.927239",
    "longitude": "-82.452539",
    "market": 144,
    "marketname": "Tampa-1",
    "solutionid": 6426401,
    "status": "COMPLETED",
    "solutiontype": "SC",
    "createdby": "TORRSA4",
    "area": "SOUTH"
  },
  {
    "solutionname": "WS LOIS",
    "latitude": "27.896938",
    "longitude": "-82.494347",
    "market": 144,
    "marketname": "Tampa-1",
    "solutionid": 6426397,
    "status": "COMPLETED",
    "solutiontype": "SC",
    "createdby": "TORRSA4",
    "area": "SOUTH"
  },
  {
    "solutionname": "WS CYPRESS",
    "latitude": "28.056636",
    "longitude": "-82.536156",
    "market": 144,
    "marketname": "Tampa-1",
    "solutionid": 6426393,
    "status": "COMPLETED",
    "solutiontype": "SC",
    "createdby": "TORRSA4",
    "area": "SOUTH"
  },
  {
    "solutionname": "RJS NE PARKING NODE 5-ODAS-636993",
    "latitude": "28.055247",
    "longitude": "-82.328273",
    "market": 144,
    "marketname": "Tampa-1",
    "solutionid": 5936407,
    "status": "COMPLETED",
    "solutiontype": "ODAS",
    "createdby": "TORRSA4",
    "area": "SOUTH"
  },
  {
    "solutionname": "144170 -850 -5MHz",
    "latitude": "27.947105",
    "longitude": "-82.345371",
    "market": 144,
    "marketname": "Tampa-1",
    "solutionid": 7053132,
    "status": "COMPLETED",
    "solutiontype": "MODIFICATION",
    "createdby": "TORRSA4",
    "area": "SOUTH"
  },
  {
    "solutionname": "GOMEZ AVE-144-144489-28GHz-5021558",
    "latitude": "27.929642",
    "longitude": "-82.454104",
    "market": 144,
    "marketname": "Tampa-1",
    "solutionid": 7317711,
    "status": "COMPLETED",
    "solutiontype": "MODIFICATION",
    "createdby": "TORRSA4",
    "area": "SOUTH"
  },
  {
    "solutionname": "Telecom Park - PCS",
    "latitude": "27.908168",
    "longitude": "-82.438172",
    "market": 144,
    "marketname": "Tampa-1",
    "solutionid": 6463945,
    "status": "COMPLETED",
    "solutiontype": "MODIFICATION",
    "createdby": "TORRSA4",
    "area": "SOUTH"
  },
  {
    "solutionname": "TAMPA TEST 3 Coverage TEMP-144-L-Sub6-9605271",
    "latitude": "27.939921",
    "longitude": "-82.395083",
    "market": 144,
    "marketname": "Tampa-1",
    "solutionid": 9605291,
    "status": "ACTIVE",
    "solutiontype": "MCR",
    "createdby": "TORRSA4",
    "area": "SOUTH"
  },
  {
    "solutionname": "TPA TEST-144-AWS-8863921",
    "latitude": "27.926950",
    "longitude": "-82.396772",
    "market": 144,
    "marketname": "Tampa-1",
    "solutionid": 8864266,
    "status": "ACTIVE",
    "solutiontype": "MCR",
    "createdby": "TORRSA4",
    "area": "SOUTH"
  },
  {
    "solutionname": "TPA TEST-144-AWS-8863921",
    "latitude": "27.911800",
    "longitude": "-82.417676",
    "market": 144,
    "marketname": "Tampa-1",
    "solutionid": 8864264,
    "status": "ACTIVE",
    "solutiontype": "MCR",
    "createdby": "TORRSA4",
    "area": "SOUTH"
  },
  {
    "solutionname": "KENNEDY_RELHR-144-700-7735390",
    "latitude": "27.997027",
    "longitude": "-82.428871",
    "market": 144,
    "marketname": "Tampa-1",
    "solutionid": 8286405,
    "status": "INACTIVE",
    "solutiontype": "MCR",
    "createdby": "TORRSA4",
    "area": "SOUTH"
  },
  {
    "solutionname": "KENNEDY_RELHR-144-700-7735390",
    "latitude": "28.004602",
    "longitude": "-82.418419",
    "market": 144,
    "marketname": "Tampa-1",
    "solutionid": 8286406,
    "status": "INACTIVE",
    "solutiontype": "MCR",
    "createdby": "TORRSA4",
    "area": "SOUTH"
  },
  {
    "solutionname": "KENNEDY_RELHR-144-700-7735390",
    "latitude": "27.974300",
    "longitude": "-82.460227",
    "market": 144,
    "marketname": "Tampa-1",
    "solutionid": 8286402,
    "status": "INACTIVE",
    "solutiontype": "MCR",
    "createdby": "TORRSA4",
    "area": "SOUTH"
  },
  {
    "solutionname": "KENNEDY_RELHR-144-700-7735390",
    "latitude": "27.989451",
    "longitude": "-82.439323",
    "market": 144,
    "marketname": "Tampa-1",
    "solutionid": 8286404,
    "status": "INACTIVE",
    "solutiontype": "MCR",
    "createdby": "TORRSA4",
    "area": "SOUTH"
  },
  {
    "solutionname": "KENNEDY_RELHR-144-700-7735390",
    "latitude": "27.959150",
    "longitude": "-82.481131",
    "market": 144,
    "marketname": "Tampa-1",
    "solutionid": 8286400,
    "status": "INACTIVE",
    "solutiontype": "MCR",
    "createdby": "TORRSA4",
    "area": "SOUTH"
  },
  {
    "solutionname": "KENNEDY_RELHR-144-700-7735390",
    "latitude": "27.981876",
    "longitude": "-82.449775",
    "market": 144,
    "marketname": "Tampa-1",
    "solutionid": 8286403,
    "status": "INACTIVE",
    "solutiontype": "MCR",
    "createdby": "TORRSA4",
    "area": "SOUTH"
  },
  {
    "solutionname": "KENNEDY_RELHR-144-700-7735390",
    "latitude": "27.966725",
    "longitude": "-82.470679",
    "market": 144,
    "marketname": "Tampa-1",
    "solutionid": 8286401,
    "status": "INACTIVE",
    "solutiontype": "MCR",
    "createdby": "TORRSA4",
    "area": "SOUTH"
  },
  {
    "solutionname": "Valrico Tower-RELO-144-700",
    "latitude": "28.052061",
    "longitude": "-82.414268",
    "market": 144,
    "marketname": "Tampa-1",
    "solutionid": 7048556,
    "status": "INACTIVE",
    "solutiontype": "MCR",
    "createdby": "TORRSA4",
    "area": "SOUTH"
  },
  {
    "solutionname": "ATT BOURBON ST - RELO-144-L-Sub6-8239394",
    "latitude": "27.879657",
    "longitude": "-82.527349",
    "market": 144,
    "marketname": "Tampa-1",
    "solutionid": 8317440,
    "status": "COMPLETED",
    "solutiontype": "MCR",
    "createdby": "TORRSA4",
    "area": "SOUTH"
  },
  {
    "solutionname": "BELL SHOALS RELO-144-L-Sub6-8249492",
    "latitude": "27.939970",
    "longitude": "-82.397496",
    "market": 144,
    "marketname": "Tampa-1",
    "solutionid": 8407991,
    "status": "ACTIVE",
    "solutiontype": "MCR",
    "createdby": "TORRSA4",
    "area": "SOUTH"
  },
  {
    "solutionname": "ATT BOURBON ST - RELO-144-L-Sub6-8239394",
    "latitude": "27.872082",
    "longitude": "-82.537801",
    "market": 144,
    "marketname": "Tampa-1",
    "solutionid": 8317439,
    "status": "COMPLETED",
    "solutiontype": "MCR",
    "createdby": "TORRSA4",
    "area": "SOUTH"
  },
  {
    "solutionname": "BELL SHOALS RELO-144-L-Sub6-8249492",
    "latitude": "27.947545",
    "longitude": "-82.387044",
    "market": 144,
    "marketname": "Tampa-1",
    "solutionid": 8407992,
    "status": "ACTIVE",
    "solutiontype": "MCR",
    "createdby": "TORRSA4",
    "area": "SOUTH"
  },
  {
    "solutionname": "ATT BOURBON ST - RELO-144-L-Sub6-8239394",
    "latitude": "28.046931",
    "longitude": "-82.558705",
    "market": 144,
    "marketname": "Tampa-1",
    "solutionid": 8317437,
    "status": "COMPLETED",
    "solutiontype": "MCR",
    "createdby": "TORRSA4",
    "area": "SOUTH"
  },
  {
    "solutionname": "TARPON SPRINGS RELO-144-L-Sub6-8283193",
    "latitude": "27.900245",
    "longitude": "-82.395658",
    "market": 144,
    "marketname": "Tampa-1",
    "solutionid": 9312137,
    "status": "ACTIVE",
    "solutiontype": "MCR",
    "createdby": "TORRSA4",
    "area": "SOUTH"
  },
  {
    "solutionname": "ATT BOURBON ST - RELO-144-L-Sub6-8239394",
    "latitude": "28.054506",
    "longitude": "-82.548253",
    "market": 144,
    "marketname": "Tampa-1",
    "solutionid": 8317438,
    "status": "COMPLETED",
    "solutiontype": "MCR",
    "createdby": "TORRSA4",
    "area": "SOUTH"
  },
  {
    "solutionname": "BELL SHOALS RELO-144-L-Sub6-8249492",
    "latitude": "27.932394",
    "longitude": "-82.407948",
    "market": 144,
    "marketname": "Tampa-1",
    "solutionid": 8407990,
    "status": "ACTIVE",
    "solutiontype": "MCR",
    "createdby": "TORRSA4",
    "area": "SOUTH"
  },
  {
    "solutionname": "TARPON SPRINGS RELO-144-L-Sub6-8283193",
    "latitude": "27.907820",
    "longitude": "-82.385206",
    "market": 144,
    "marketname": "Tampa-1",
    "solutionid": 9312138,
    "status": "ACTIVE",
    "solutiontype": "MCR",
    "createdby": "TORRSA4",
    "area": "SOUTH"
  },
  {
    "solutionname": "Valrico Tower-RELO-144-700",
    "latitude": "28.059637",
    "longitude": "-82.403816",
    "market": 144,
    "marketname": "Tampa-1",
    "solutionid": 7048557,
    "status": "INACTIVE",
    "solutiontype": "MCR",
    "createdby": "TORRSA4",
    "area": "SOUTH"
  },
  {
    "solutionname": "FL AQUARIUM 003-144-AWS-6773659",
    "latitude": "28.042746",
    "longitude": "-82.401433",
    "market": 144,
    "marketname": "Tampa-1",
    "solutionid": 6935539,
    "status": "COMPLETED",
    "solutiontype": "SC",
    "createdby": "TORRSA4",
    "area": "SOUTH"
  },
  {
    "solutionname": "FL AQUARIUM 002-144-AWS-6773656",
    "latitude": "28.027595",
    "longitude": "-82.422337",
    "market": 144,
    "marketname": "Tampa-1",
    "solutionid": 6935537,
    "status": "COMPLETED",
    "solutiontype": "SC",
    "createdby": "TORRSA4",
    "area": "SOUTH"
  },
  {
    "solutionname": "RAYMOND JAMES STADIUM DAS",
    "latitude": "28.012776",
    "longitude": "-82.357959",
    "market": 144,
    "marketname": "Tampa-1",
    "solutionid": 6974762,
    "status": "COMPLETED",
    "solutiontype": "ODAS",
    "createdby": "TORRSA4",
    "area": "SOUTH"
  },
  {
    "solutionname": "RJS NORTH PARKING 004-ODAS-382154",
    "latitude": "27.902256",
    "longitude": "-82.559505",
    "market": 144,
    "marketname": "Tampa-1",
    "solutionid": 6718167,
    "status": "COMPLETED",
    "solutiontype": "ODAS",
    "createdby": "TORRSA4",
    "area": "SOUTH"
  },
  {
    "solutionname": "RJS SOUTH PARKING 018-ODAS-382131",
    "latitude": "27.871955",
    "longitude": "-82.361313",
    "market": 144,
    "marketname": "Tampa-1",
    "solutionid": 6718163,
    "status": "COMPLETED",
    "solutiontype": "ODAS",
    "createdby": "TORRSA4",
    "area": "SOUTH"
  },
  {
    "solutionname": "086958 JPV PLANT CITY (292)-144-850-8231715",
    "latitude": "27.986163",
    "longitude": "-82.333303",
    "market": 144,
    "marketname": "Tampa-1",
    "solutionid": 8250387,
    "status": "COMPLETED",
    "solutiontype": "MODIFICATION",
    "createdby": "TORRSA4",
    "area": "SOUTH"
  },
  {
    "solutionname": "088022 VERTEX DURANT (438)-144-850-8231643",
    "latitude": "28.025270",
    "longitude": "-82.323648",
    "market": 144,
    "marketname": "Tampa-1",
    "solutionid": 8250342,
    "status": "COMPLETED",
    "solutiontype": "MODIFICATION",
    "createdby": "TORRSA4",
    "area": "SOUTH"
  },
  {
    "solutionname": "LAKE CARLTON MACRO",
    "latitude": "28.043215",
    "longitude": "-82.372050",
    "market": 144,
    "marketname": "Tampa-1",
    "solutionid": 6561654,
    "status": "INACTIVE",
    "solutiontype": "MCR",
    "createdby": "TORRSA4",
    "area": "SOUTH"
  },
  {
    "solutionname": "VERTEX BOYETTE",
    "latitude": "27.919492",
    "longitude": "-82.512009",
    "market": 144,
    "marketname": "Tampa-1",
    "solutionid": 7810329,
    "status": "COMPLETED",
    "solutiontype": "MCR",
    "createdby": "TORRSA4",
    "area": "SOUTH"
  },
  {
    "solutionname": "GOLDEN MAPLE",
    "latitude": "28.001491",
    "longitude": "-82.445581",
    "market": 144,
    "marketname": "Tampa-1",
    "solutionid": 7376586,
    "status": "ACTIVE",
    "solutiontype": "MCR",
    "createdby": "TORRSA4",
    "area": "SOUTH"
  },
  {
    "solutionname": "BURNETT SPORTS COMPLEX-144-700-7157600",
    "latitude": "27.879805",
    "longitude": "-82.544286",
    "market": 144,
    "marketname": "Tampa-1",
    "solutionid": 7539422,
    "status": "COMPLETED",
    "solutiontype": "MCR",
    "createdby": "TORRSA4",
    "area": "SOUTH"
  },
  {
    "solutionname": "BURNETT SPORTS COMPLEX-144-700-7157600",
    "latitude": "28.047079",
    "longitude": "-82.335643",
    "market": 144,
    "marketname": "Tampa-1",
    "solutionid": 7539419,
    "status": "COMPLETED",
    "solutiontype": "MCR",
    "createdby": "TORRSA4",
    "area": "SOUTH"
  },
  {
    "solutionname": "VERTEX BOYETTE",
    "latitude": "27.889191",
    "longitude": "-82.553817",
    "market": 144,
    "marketname": "Tampa-1",
    "solutionid": 7810325,
    "status": "COMPLETED",
    "solutiontype": "MCR",
    "createdby": "TORRSA4",
    "area": "SOUTH"
  },
  {
    "solutionname": "CYPRESS RIDGE RANCH-147-L-Sub6-8143982",
    "latitude": "28.007167",
    "longitude": "-82.433866",
    "market": 144,
    "marketname": "Tampa-2",
    "solutionid": 8406495,
    "status": "COMPLETED",
    "solutiontype": "MCR",
    "createdby": "TORRSA4",
    "area": "SOUTH"
  },
  {
    "solutionname": "Lexington Oaks",
    "latitude": "27.872609",
    "longitude": "-82.376003",
    "market": 144,
    "marketname": "Tampa-1",
    "solutionid": 7299946,
    "status": "COMPLETED",
    "solutiontype": "MCR",
    "createdby": "TORRSA4",
    "area": "SOUTH"
  },
  {
    "solutionname": "ANDERSON RD-MCR-790144",
    "latitude": "28.057460",
    "longitude": "-82.482878",
    "market": 144,
    "marketname": "Tampa-1",
    "solutionid": 8409085,
    "status": "COMPLETED",
    "solutiontype": "MCR",
    "createdby": "TORRSA4",
    "area": "SOUTH"
  },
  {
    "solutionname": "SBA RUSKIN-144-700-8013669",
    "latitude": "27.964722",
    "longitude": "-82.395046",
    "market": 144,
    "marketname": "Tampa-1",
    "solutionid": 8277522,
    "status": "COMPLETED",
    "solutiontype": "MCR",
    "createdby": "TORRSA4",
    "area": "SOUTH"
  },
  {
    "solutionname": "SBA RUSKIN-144-700-8013669",
    "latitude": "27.957147",
    "longitude": "-82.405498",
    "market": 144,
    "marketname": "Tampa-1",
    "solutionid": 8277521,
    "status": "COMPLETED",
    "solutiontype": "MCR",
    "createdby": "TORRSA4",
    "area": "SOUTH"
  },
  {
    "solutionname": "Woodland CTR-144-L-Sub6-7876594",
    "latitude": "28.047408",
    "longitude": "-82.382525",
    "market": 144,
    "marketname": "Tampa-1",
    "solutionid": 8373343,
    "status": "COMPLETED",
    "solutiontype": "MCR",
    "createdby": "TORRSA4",
    "area": "SOUTH"
  },
  {
    "solutionname": "CC Waters Ave-144-700-7758247",
    "latitude": "28.001852",
    "longitude": "-82.390096",
    "market": 144,
    "marketname": "Tampa-1",
    "solutionid": 7801110,
    "status": "COMPLETED",
    "solutiontype": "MCR",
    "createdby": "TORRSA4",
    "area": "SOUTH"
  },
  {
    "solutionname": "CC Waters Ave-144-700-7758247",
    "latitude": "27.979126",
    "longitude": "-82.421453",
    "market": 144,
    "marketname": "Tampa-1",
    "solutionid": 7801107,
    "status": "COMPLETED",
    "solutiontype": "MCR",
    "createdby": "TORRSA4",
    "area": "SOUTH"
  },
  {
    "solutionname": "CREEK VIEW EAST-144-L-Sub6-8312647",
    "latitude": "27.928064",
    "longitude": "-82.399261",
    "market": 144,
    "marketname": "Tampa-1",
    "solutionid": 8409093,
    "status": "ACTIVE",
    "solutiontype": "MCR",
    "createdby": "TORRSA4",
    "area": "SOUTH"
  },
  {
    "solutionname": "F&L Rogers Park Golf Course",
    "latitude": "27.989220",
    "longitude": "-82.474183",
    "market": 144,
    "marketname": "Tampa-1",
    "solutionid": 6924120,
    "status": "COMPLETED",
    "solutiontype": "MCR",
    "createdby": "TORRSA4",
    "area": "SOUTH"
  },
  {
    "solutionname": "Lexington Oaks",
    "latitude": "27.970706",
    "longitude": "-82.469400",
    "market": 144,
    "marketname": "Tampa-1",
    "solutionid": 6686649,
    "status": "COMPLETED",
    "solutiontype": "MCR",
    "createdby": "TORRSA4",
    "area": "SOUTH"
  },
  {
    "solutionname": "CC 440-1561 CURIOSITY CRK-144-L-Sub6-7640458",
    "latitude": "28.003697",
    "longitude": "-82.454005",
    "market": 144,
    "marketname": "Tampa-1",
    "solutionid": 7801035,
    "status": "COMPLETED",
    "solutiontype": "MCR",
    "createdby": "TORRSA4",
    "area": "SOUTH"
  },
  {
    "solutionname": "Tinker Macdill S Water Tower new build",
    "latitude": "27.910526",
    "longitude": "-82.458712",
    "market": 144,
    "marketname": "Tampa-1",
    "solutionid": 8238940,
    "status": "ACTIVE",
    "solutiontype": "MCR",
    "createdby": "TORRSA4",
    "area": "SOUTH"
  },
  {
    "solutionname": "144278 -PCS -10MHz-674156",
    "latitude": "27.873808",
    "longitude": "-82.487227",
    "market": 144,
    "marketname": "Tampa-1",
    "solutionid": 6557418,
    "status": "COMPLETED",
    "solutiontype": "MODIFICATION",
    "createdby": "TORRSA4",
    "area": "SOUTH"
  },
  {
    "solutionname": "144443 -AWS -20MHz",
    "latitude": "28.017200",
    "longitude": "-82.323875",
    "market": 144,
    "marketname": "Tampa-1",
    "solutionid": 7334853,
    "status": "COMPLETED",
    "solutiontype": "MODIFICATION",
    "createdby": "TORRSA4",
    "area": "SOUTH"
  },
  {
    "solutionname": "086822 NEXTEL OSBORNE (50)-144-850-7971024",
    "latitude": "28.004099",
    "longitude": "-82.365418",
    "market": 144,
    "marketname": "Tampa-1",
    "solutionid": 7998148,
    "status": "COMPLETED",
    "solutiontype": "MODIFICATION",
    "createdby": "TORRSA4",
    "area": "SOUTH"
  },
  {
    "solutionname": "BELL SHOALS PAPA JOHNS-144-AWS3-8177257",
    "latitude": "27.903402",
    "longitude": "-82.555772",
    "market": 144,
    "marketname": "Tampa-1",
    "solutionid": 8186394,
    "status": "COMPLETED",
    "solutiontype": "MODIFICATION",
    "createdby": "TORRSA4",
    "area": "SOUTH"
  },
  {
    "solutionname": "085501 DARBY LANE (35)-144-850-8231512",
    "latitude": "28.054800",
    "longitude": "-82.383137",
    "market": 144,
    "marketname": "Tampa-1",
    "solutionid": 8255939,
    "status": "COMPLETED",
    "solutiontype": "MODIFICATION",
    "createdby": "TORRSA4",
    "area": "SOUTH"
  },
  {
    "solutionname": "088031 TRM FAIRFIELD DIST-144-850-8231529",
    "latitude": "28.057390",
    "longitude": "-82.486182",
    "market": 144,
    "marketname": "Tampa-1",
    "solutionid": 8251199,
    "status": "COMPLETED",
    "solutiontype": "MODIFICATION",
    "createdby": "TORRSA4",
    "area": "SOUTH"
  },
  {
    "solutionname": "086830 TECO LITHIA SWITCH 2 (199)-144-AWS-7876620",
    "latitude": "28.016026",
    "longitude": "-82.540248",
    "market": 144,
    "marketname": "Tampa-1",
    "solutionid": 7952552,
    "status": "COMPLETED",
    "solutiontype": "MODIFICATION",
    "createdby": "TORRSA4",
    "area": "SOUTH"
  },
  {
    "solutionname": "085112 RACE TRACK MOBELY (13)-144-850-8231567",
    "latitude": "28.015401",
    "longitude": "-82.452232",
    "market": 144,
    "marketname": "Tampa-1",
    "solutionid": 8332005,
    "status": "COMPLETED",
    "solutiontype": "MODIFICATION",
    "createdby": "TORRSA4",
    "area": "SOUTH"
  },
  {
    "solutionname": "MARRIOTT_RENAISSANCE-144-144425-AWS3",
    "latitude": "27.982071",
    "longitude": "-82.354031",
    "market": 144,
    "marketname": "Tampa-1",
    "solutionid": 6763123,
    "status": "COMPLETED",
    "solutiontype": "MODIFICATION",
    "createdby": "TORRSA4",
    "area": "SOUTH"
  },
  {
    "solutionname": "144240 -4TX 700-10MHz",
    "latitude": "28.001926",
    "longitude": "-82.376981",
    "market": 144,
    "marketname": "Tampa-1",
    "solutionid": 7054920,
    "status": "COMPLETED",
    "solutiontype": "MODIFICATION",
    "createdby": "TORRSA4",
    "area": "SOUTH"
  },
  {
    "solutionname": "RJS NORTH PARKING 004-ODAS-382154",
    "latitude": "27.894681",
    "longitude": "-82.329957",
    "market": 144,
    "marketname": "Tampa-1",
    "solutionid": 6718166,
    "status": "COMPLETED",
    "solutiontype": "ODAS",
    "createdby": "TORRSA4",
    "area": "SOUTH"
  },
  {
    "solutionname": "RJS SOUTH PARKING 018-ODAS-382131",
    "latitude": "28.054379",
    "longitude": "-82.371766",
    "market": 144,
    "marketname": "Tampa-1",
    "solutionid": 6718162,
    "status": "COMPLETED",
    "solutiontype": "ODAS",
    "createdby": "TORRSA4",
    "area": "SOUTH"
  },
  {
    "solutionname": "South Woodland Center-0",
    "latitude": "27.943228",
    "longitude": "-82.557614",
    "market": 144,
    "marketname": "Tampa-1",
    "solutionid": 7016212,
    "status": "INACTIVE",
    "solutiontype": "MODIFICATION",
    "createdby": "TORRSA4",
    "area": "SOUTH"
  },
  {
    "solutionname": "144136 -4TX 700-10MHz-478992",
    "latitude": "27.921520",
    "longitude": "-82.507166",
    "market": 144,
    "marketname": "Tampa-1",
    "solutionid": 6527979,
    "status": "COMPLETED",
    "solutiontype": "MODIFICATION",
    "createdby": "TORRSA4",
    "area": "SOUTH"
  },
  {
    "solutionname": "VERTEX BOYETTE",
    "latitude": "27.881615",
    "longitude": "-82.324269",
    "market": 144,
    "marketname": "Tampa-1",
    "solutionid": 7810324,
    "status": "COMPLETED",
    "solutiontype": "MCR",
    "createdby": "TORRSA4",
    "area": "SOUTH"
  },
  {
    "solutionname": "Small Cell Kenyon Ave",
    "latitude": "28.014925",
    "longitude": "-82.433850",
    "market": 144,
    "marketname": "Tampa-1",
    "solutionid": 6300480,
    "status": "INACTIVE",
    "solutiontype": "SC",
    "createdby": "TORRSA4",
    "area": "SOUTH"
  },
  {
    "solutionname": "RJS East Parking 4",
    "latitude": "28.039655",
    "longitude": "-82.502065",
    "market": 144,
    "marketname": "Tampa-1",
    "solutionid": 6557164,
    "status": "COMPLETED",
    "solutiontype": "SC",
    "createdby": "TORRSA4",
    "area": "SOUTH"
  },
  {
    "solutionname": "DT TAMPA NODE 14",
    "latitude": "27.970115",
    "longitude": "-82.420600",
    "market": 144,
    "marketname": "Tampa-1",
    "solutionid": 7013883,
    "status": "COMPLETED",
    "solutiontype": "SC",
    "createdby": "TORRSA4",
    "area": "SOUTH"
  },
  {
    "solutionname": "DT TAMPA NODE 19",
    "latitude": "28.005532",
    "longitude": "-82.523128",
    "market": 144,
    "marketname": "Tampa-1",
    "solutionid": 7013988,
    "status": "COMPLETED",
    "solutiontype": "SC",
    "createdby": "TORRSA4",
    "area": "SOUTH"
  },
  {
    "solutionname": "UT NODE 1",
    "latitude": "27.922617",
    "longitude": "-82.503291",
    "market": 144,
    "marketname": "Tampa-1",
    "solutionid": 6503525,
    "status": "COMPLETED",
    "solutiontype": "SC",
    "createdby": "TORRSA4",
    "area": "SOUTH"
  },
  {
    "solutionname": "HARBOUR ISLAND NODE 4",
    "latitude": "27.961061",
    "longitude": "-82.455401",
    "market": 144,
    "marketname": "Tampa-1",
    "solutionid": 7015487,
    "status": "COMPLETED",
    "solutiontype": "SC",
    "createdby": "TORRSA4",
    "area": "SOUTH"
  },
  {
    "solutionname": "Frontier South Ballast Point",
    "latitude": "28.041816",
    "longitude": "-82.479037",
    "market": 144,
    "marketname": "Tampa-1",
    "solutionid": 6808277,
    "status": "COMPLETED",
    "solutiontype": "SC",
    "createdby": "TORRSA4",
    "area": "SOUTH"
  },